Id,Title,Address,Town,State,Postcode,Country,Latitude,Longitude,Operator,Status,Num Connectors,Connector Types,Date Added,Year Added,Month Added,Num Connector Types
462769,Electra - Wambrechies - Volfoni,81 Av. Clment Ader,Wambrechies,Unknown,59118,FR,50.6856527479799,3.0624104228837723,Electra,Operational,2,CCS Type 2Type 2 Socket Only,2025-11-02,2025,11,1
462768,Electra - Tourcoing - Action,185 rue du Touquet,Tourcoing,Unknown,59200,FR,50.723170847779386,3.1806363703025227,Electra,Operational,3,CCS Type 2CHAdeMOType 2 Socket Only,2025-11-02,2025,11,1
462767,Electra - Bondues - Sure Hotel by Best Western Lille Tourcoing,3 Av. Henri Becquerel,Bondues,Unknown,59910,FR,50.722535304716985,3.1294960074308165,Electra,Operational,2,CCS Type 2Type 2 Socket Only,2025-11-02,2025,11,1
462766,Electra - Bousbecque - Intermarch,Rue Auger,Bousbecque,Unknown,59166,FR,50.77013919273634,3.0834544961079478,Electra,Operational,2,CCS Type 2Type 2 Socket Only,2025-11-02,2025,11,1
462765,Electra - Halluin - Intermarch,Boulevard de Roncq,Halluin,Unknown,59250,FR,50.769938069594645,3.1240298745922246,Electra,Operational,2,CCS Type 2Type 2 Socket Only,2025-11-02,2025,11,1
462763,Ayunt. El Palau dAnglesola,El Palau dAnglesola,El Palau dAnglesola,Unknown,Unknown,ES,41.6485021075361,0.8768075184850659,eTecnic,Operational,1,Type 2 Socket Only,2025-11-02,2025,11,1
462762,Energia Nufri,Mollerusa,Mollerusa,Unknown,Unknown,ES,41.640456638661874,0.8866282164026416,eTecnic,Operational,1,CCS Type 2,2025-11-02,2025,11,1
462761,Hotel Jard,Mollerusa,Mollerusa,Unknown,Unknown,ES,41.631459017537054,0.896504733154643,Business Owner at Location,Operational,1,Type 2 Socket Only,2025-11-02,2025,11,1
462760,Ayunt. Miralcamp,Miralcamp,Miralcamp,Unknown,Unknown,ES,41.60614279458071,0.881104052848741,eTecnic,Operational,1,Type 2 Socket Only,2025-11-02,2025,11,1
462759,Ayunt. Arbeca,Arbeca,Arbeca,Unknown,Unknown,ES,41.542112663876,0.924948337314845,eTecnic,Operational,1,Type 2 Socket Only,2025-11-02,2025,11,1
462744,Electra - Fouquires-les-Bethune - Boulangerie,Zone actipolis,Fouquires-les-Bethune,Unknown,62232,FR,50.51158729881541,2.6209277841594485,Electra,Operational,2,CCS Type 2Type 2 Socket Only,2025-11-02,2025,11,1
462743,Electra - Le Touquet-Paris-Plage - Htel Ibis,4 avenue Louison Bobet,Le Touquet-Paris-Plage,Unknown,62520,FR,50.51602001141006,1.5787738531715831,Electra,Operational,2,CCS Type 2Type 2 Socket Only,2025-11-02,2025,11,1
462742,Electra - Calais - Burger King,124 avenue Antoine de Saint-Exupry,Calais,Unknown,62100,FR,50.94549670693155,1.8981091240312933,Electra,Operational,2,CCS Type 2Type 2 Socket Only,2025-11-01,2025,11,1
462735,Hotel BB Tarragona Valls,Valls,Valls,Unknown,Unknown,ES,41.299308869916615,1.2615383473532802,Business Owner at Location,Operational,1,Type 2 Socket Only,2025-11-01,2025,11,1
462734,Tesla Supercharger Svrac-dAveyron,Aire de lAveyron,Svrac-dAveyron,Unknown,12150,FR,44.32906284511972,3.0803441121574906,Tesla including non-tesla,Operational,1,CCS Type 2,2025-11-01,2025,11,1
462733,Tesla Supercharger Sanilhac,CraValle Sud la Couture,Sanilhac,Unknown,24660,FR,45.13601896888832,0.7006117079748719,Tesla including non-tesla,Operational,1,CCS Type 2,2025-11-01,2025,11,1
462731,Tesla Supercharger Lagord,Avenue du Fief Rose,Lagord,Unknown,17140,FR,46.17485879524952,-1.1701379426496032,Tesla including non-tesla,Operational,1,CCS Type 2,2025-11-01,2025,11,1
462730,Cavas Pares Balta,Penedes,Penedes,Unknown,Unknown,ES,41.369095042729526,1.6558776364411187,Business Owner at Location,Operational,1,Type 2 Socket Only,2025-11-01,2025,11,1
462729,Tesla Supercharger Porto-Vecchio,T10,Porto-Vecchio,Unknown,20137,FR,41.57086650689254,9.273782448109388,Tesla including non-tesla,Operational,1,CCS Type 2,2025-11-01,2025,11,1
462728,Tesla Supercharger Magnant,D443,Magnant,Unknown,10110,FR,48.1807124359153,4.434366644283614,Tesla including non-tesla,Operational,1,CCS Type 2,2025-11-01,2025,11,1
462727,Tesla Supercharger Les Sables-dOlonne,87 Av. Francois Mitterrand,Les Sables-dOlonne,Unknown,85340,FR,46.51376963361935,-1.7770465726061957,Tesla including non-tesla,Operational,1,CCS Type 2,2025-11-01,2025,11,1
462726,Tesla Supercharger Falaise,2 rue Louis Rochet,Falaise,Unknown,14700,FR,48.9073067633619,-0.2069726228851323,Tesla including non-tesla,Operational,1,CCS Type 2,2025-11-01,2025,11,1
462725,Tesla Supercharger Artix,51 Rue des cureuils,Artix,Unknown,64170,FR,43.39285785077698,-0.5553973636018554,Tesla including non-tesla,Operational,1,CCS Type 2,2025-11-01,2025,11,1
462724,Tesla Supercharger Agde,Bd Maurice Pacul,Agde,Unknown,34300,FR,43.29842920680102,3.472309232591897,Tesla including non-tesla,Operational,1,CCS Type 2,2025-11-01,2025,11,1
462722,Ayunt. Albinyana,Les Peces,Lalbinyana,Unknown,Unknown,ES,41.252653951048586,1.503785094817772,Unknown Operator,Operational,1,Type 2 Socket Only,2025-11-01,2025,11,1
462721,Tesla Supercharger Aix-en-Provence - Beaumanoir,Rue Marcel Arnaud,Aix-en-Provence,Unknown,13100,FR,43.51358414410458,5.466918055071346,Tesla including non-tesla,Operational,1,CCS Type 2,2025-11-01,2025,11,1
462720,Ayunt. Vilabella,Vilabella,Vilabella,Unknown,Unknown,ES,41.24847535929064,1.3307544213976144,eTecnic,Operational,1,Type 2 Socket Only,2025-11-01,2025,11,1
462719,Ayunt. Salom,Salom,Salom,Unknown,Unknown,ES,41.23005988769325,1.376109386752546,eTecnic,Operational,1,Type 2 Socket Only,2025-11-01,2025,11,1
462718,Ayunt. La Nou de Gai,La Nou de Gai,La Nou de Gai,Unknown,Unknown,ES,41.181981897314415,1.3732790332641116,eTecnic,Operational,1,Type 2 Socket Only,2025-11-01,2025,11,1
462717,Camping Las Palmeras Zona Bungalows,Solimar,Tarragona,Unknown,Unknown,ES,41.13052895776218,1.318220638497678,Business Owner at Location,Operational,1,Type 2 Socket Only,2025-11-01,2025,11,1
462716,Ayunt. Els Pallaresos,Els Pallaresos,Els Pallaresos,Unknown,Unknown,ES,41.16836904425389,1.2741055846042857,Unknown Operator,Operational,1,Type 2 Socket Only,2025-11-01,2025,11,1
462715,Repsol Petroleo Visitantes,Tarragona,Tarragona,Unknown,Unknown,ES,41.17189095625409,1.2264916359336553,Repsol - Ibil ES,Operational,1,Type 2 Socket Only,2025-11-01,2025,11,1
462714,Ayto. Vilallonga del Camp,Vilallonga del Camp,Vilallonga del Camp,Unknown,Unknown,ES,41.208907125106464,1.2033020639570395,eTecnic,Operational,1,Type 2 Socket Only,2025-11-01,2025,11,1
462713,Ayunt. dEl Pla de Santa Maria,El Pla de Santa Maria,El Pla de Santa Maria,Unknown,Unknown,ES,41.36567800553598,1.2883674221168349,Unknown Operator,Operational,1,Type 2 Socket Only,2025-11-01,2025,11,1
462712,Ayunt. dEl Pla de Santa Maria - Piscina Municipal,Ayunt. dEl Pla de Santa Maria,Ayunt. dEl Pla de Santa Maria,Unknown,Unknown,ES,41.36311282927053,1.2926158859520456,Unknown Operator,Operational,1,Type 2 Socket Only,2025-11-01,2025,11,1
462710,El Pont dArmentera,El Pont dArmentera,El Pont dArmentera,Unknown,Unknown,ES,41.384075227782205,1.3629282492947823,Unknown Operator,Operational,1,Type 2 Socket Only,2025-11-01,2025,11,1
462709,Ayunt. Blancafort Piscina Municipal,Blancafort,Blancafort,Unknown,Unknown,ES,41.43985510861936,1.1591714786642342,eTecnic,Operational,1,Type 2 Socket Only,2025-11-01,2025,11,1
462703,Enel Conad,Strada Malagoli 23,Reggiolo,RE,Unknown,IT,44.917512,10.798907,Enel X,Operational,1,CCS Type 2,2025-11-01,2025,11,1
462702,Tesla Supercharger Valence Sud - Chemin de la Sonacotral,97 Chemin de la Sonacotral,Valence,Unknown,26000,FR,44.90361631160624,4.879962490338016,Tesla including non-tesla,Operational,1,CCS Type 2,2025-11-01,2025,11,1
462701,Parking Torroja Tarragona,Tarragona,Tarragona,Unknown,Unknown,ES,41.12064322509218,1.2618287643850865,Business Owner at Location,Operational,1,Type 2 Socket Only,2025-11-01,2025,11,1
462700,Interparking Hispania URV,Tarragona,Tarragona,Unknown,Unknown,ES,41.12321631788669,1.2496752369665955,Business Owner at Location,Operational,1,Type 2 Socket Only,2025-11-01,2025,11,1
462698,Puerto Deportivo Tarragona,Tarragona,Tarragona,Unknown,Unknown,ES,41.10818354878461,1.251044179109499,Electromaps,Operational,2,Type 2 Socket OnlyCEE 7/4 - Schuko - Type F,2025-11-01,2025,11,1
462697,Puerto Deportivo Tarragona,Tarragona,Tarragona,Unknown,Unknown,ES,41.10942193537505,1.253384966493968,Electromaps,Operational,1,Type 2 Socket Only,2025-11-01,2025,11,1
462696,BP Pulse Servon Eden,ZAC du Noyer aux Perdrix,Servon,Unknown,77170,FR,48.70634607912677,2.584012577409453,BP Pulse UK,Operational,2,CCS Type 2CCS Type 2,2025-11-01,2025,11,1
462695,Leroy Merln Tarragona,Tarragona,Tarragona,Unknown,Unknown,ES,41.13073933505083,1.2037605526634252,Iberdrola  BP Pulse ES,Operational,1,Type 2 Tethered Connector,2025-11-01,2025,11,1
462694,BMW Oliva Motor,Tarragona,Tarragona,Unknown,Unknown,ES,41.13021560081111,1.1990122493393756,Business Owner at Location,Operational,1,Type 2 Socket Only,2025-11-01,2025,11,1
462665,Hotel Palas Pineda II,Salou,Salou,Unknown,Unknown,ES,41.06786304529865,1.175799890088456,Business Owner at Location,Operational,1,Type 2 Socket Only,2025-10-31,2025,10,1
462664,Centro Deportivo Salou,Salou,Salou,Unknown,Unknown,ES,41.080708767500056,1.165519856062815,Electromaps,Operational,1,Type 2 Socket Only,2025-10-31,2025,10,1
462662,Ayunt. Tivenys,Tivenys,Tivenys,Unknown,Unknown,ES,40.90642522861418,0.512323745933486,Unknown Operator,Operational,1,Type 2 Socket Only,2025-10-31,2025,10,1
462661,Alcampo Tortosa,Tortosa,Tortosa,Unknown,Unknown,ES,40.81895354068928,0.5140867289396738,Iberdrola  BP Pulse ES,Operational,1,Type 2 Tethered Connector,2025-10-31,2025,10,1
462660,Aldi Deltebre,Deltebre,Deltebre,Unknown,Unknown,ES,40.72330450098119,0.7229359432240017,ALDI SD DE,Operational,1,Type 2 Socket Only,2025-10-31,2025,10,1
462659,E.S. BonArea Deltebre,Deltebre,Deltebre,Unknown,Unknown,ES,40.72352736543914,0.7250824063530672,Iberdrola  BP Pulse ES,Planned For Future Date,2,CCS Type 2Type 2 Tethered Connector,2025-10-31,2025,10,1
462658,Area di Servizio San Liberato,E45 dir Orte,Montoro,Unknown,Unknown,IT,40.82299968039658,14.807181717922049,Electrip,Operational,1,CCS Type 2,2025-10-31,2025,10,1
462657,Camping Alfacs,Montsi Mar,Montsi Mar,Unknown,Unknown,ES,40.595201662290094,0.5704125058273348,Business Owner at Location,Operational,1,Type 2 Socket Only,2025-10-31,2025,10,1
462656,Tokmanni Klaukkala,Viirintie 8,Klaukkala,Unknown,01800,FI,60.37875947085215,24.76032858156134,Plugit,Operational,2,CCS Type 2Type 2 Socket Only,2025-10-31,2025,10,1
462654,K-Supermarket Nurmijrvi,Mahlamentie 2,Nurmijrvi,Uusimaa,01900,FI,60.46222866467701,24.810621526047385,K Lataus,Operational,2,CCS Type 2Type 2 Socket Only,2025-10-31,2025,10,1
462653,Lidl Benicarl,Benicarl,Benicarl,Unknown,Unknown,ES,40.42413136322992,0.4159248759381171,Lidl,Operational,1,Type 2 Socket Only,2025-10-31,2025,10,1
462652,Neste Nurmijrvi Myllykukko,Ilvesvuorenkatu 2,Nurmijrvi,Uusimaa,01900,FI,60.45526894003214,24.843215135232413,Neste Lataus,Operational,1,CCS Type 2,2025-10-31,2025,10,1
462650,Neste Alikeravantie,Alikeravantie 25,Kerava,Uusimaa,04250,FI,60.39483954417514,25.110440902901477,Neste Lataus,Operational,1,CCS Type 2,2025-10-31,2025,10,1
462649,Apartamentos Els Romers,Benicarl,Benicarl,Unknown,Unknown,ES,40.40315015761695,0.4180349815369482,Electromaps,Operational,1,Type 2 Socket Only,2025-10-31,2025,10,1
462648,Lidl Kerava,Santaniitynkatu 7,Kerava,Uusimaa,04250,FI,60.39969473826966,25.111991158573574,Lidl,Operational,3,CCS Type 2CHAdeMOType 2 Tethered Connector,2025-10-31,2025,10,1
462646,Plugit Prisma Kerava,Kauppakaari 2,Kerava,Uusimaa,04200,FI,60.40153500878972,25.1033947035844,Plugit,Operational,1,Type 2 Socket Only,2025-10-31,2025,10,1
462645,Prisma Kerava,Kauppakaari 2,Kerava,Uusimaa,04200,FI,60.401385233305206,25.102481588570072,ABC Lataus FI,Operational,3,CCS Type 2Type 2 Socket OnlyCHAdeMO,2025-10-31,2025,10,1
462644,Parking Pescola Norte,Pescola,Pescola,Unknown,Unknown,ES,40.39426958762684,0.409321988374586,Electromaps,Operational,1,Type 2 Socket Only,2025-10-31,2025,10,1
462642,Hotel RH Casablanca,Pescola,Pescola,Unknown,Unknown,ES,40.38911162451916,0.4108252390572033,Business Owner at Location,Operational,1,Type 2 Socket Only,2025-10-31,2025,10,1
462641,Hotel Pescola Palace,Pescola,Pescola,Unknown,Unknown,ES,40.3734278855475,0.4053089667518179,Business Owner at Location,Operational,1,Type 2 Socket Only,2025-10-31,2025,10,1
462636,Rykmentinpuiston koulu ja pivkoti,Puustellinniitynkaari 2,Tuusula,Uusimaa,04310,FI,60.396878340217,25.046152731227608,VIRTA,Operational,1,Type 2 Socket Only,2025-10-31,2025,10,1
462634,Hotel Agora,Pescola,Pescola,Unknown,Unknown,ES,40.35763726254035,0.3983377131980887,Electromaps,Operational,1,Type 2 Socket Only,2025-10-31,2025,10,1
462633,S-Market Hyryl,Hyrylnkatu 6,Tuusula,Uusimaa,04300,FI,60.39718893526165,25.01950307640629,ABC Lataus FI,Operational,3,CHAdeMOCCS Type 2Type 2 Socket Only,2025-10-31,2025,10,1
462629,Hotel Servigroup Romana,Alcocber,Alcocber,Unknown,Unknown,ES,40.236649295080014,0.272311296136877,Business Owner at Location,Operational,1,Type 2 Socket Only,2025-10-31,2025,10,1
462627,Ayunt. Torreblanca,Torreblanca,Torreblanca,Unknown,Unknown,ES,40.19880261330272,0.2287963013158105,Qwello,Operational,1,Type 2 Socket Only,2025-10-31,2025,10,1
462626,K-Supermarket Peltola,Vehntie 2,Jrvenp,Uusimaa,04410,FI,60.49225949922891,25.093164417785943,K Lataus,Operational,2,CCS Type 2Type 2 Socket Only,2025-10-31,2025,10,1
462625,Ayunt. Torreblanca. Torrenostra,Torreblanca,Torreblanca,Unknown,Unknown,ES,40.19762027540367,0.2215043392916413,Qwello,Operational,1,Type 2 Socket Only,2025-10-31,2025,10,1
462624,Ayunt. Torreblanca,Torreblanca,Torreblanca,Unknown,Unknown,ES,40.2215460919997,0.1992112280004221,Qwello,Operational,1,CCS Type 2,2025-10-31,2025,10,1
462622,Ayunt. Torreblanca,Torreblanca,Torreblanca,Unknown,Unknown,ES,40.22006543434031,0.1955389483416638,Qwello,Operational,1,Type 2 Socket Only,2025-10-31,2025,10,1
462621,Camping Riberamar,Oropesa,Oropesa,Unknown,Unknown,ES,40.12494697912962,0.1568168173463391,ChargeGuru,Operational,1,Type 2 Tethered Connector,2025-10-31,2025,10,1
462620,Roinilan pivkoti,Nystenintie 6,Savikulma,Uusimaa,04500,FI,60.5326255248792,25.11521223036561,VIRTA,Operational,1,Type 2 Socket Only,2025-10-31,2025,10,1
462619,Torpparin Pivkoti,Ampujantie 1,Kellokoski,Uusimaa,04500,FI,60.525103,25.09787600000004,VIRTA,Operational,1,Type 2 Socket Only,2025-10-31,2025,10,1
462618,Hotel Voromar,Benicassim,Benicassim,Unknown,Unknown,ES,40.05742495974215,0.0848165389461428,Business Owner at Location,Operational,1,Type 2 Socket Only,2025-10-31,2025,10,1
462617,K-Supermarket Kellokoski,Vanha valtatie 189,Tuusula,Uusimaa,04500,FI,60.53079929762103,25.11022061906749,K Lataus,Operational,3,CCS Type 2CHAdeMOType 2 Socket Only,2025-10-31,2025,10,1
462605,McDonalds Castelln,Castelln,Castelln,Unknown,Unknown,ES,39.99971334260056,-0.0406237368173378,Endesa,Operational,1,CCS Type 2,2025-10-31,2025,10,1
462604,Hotel Doa Lola,Castelln,Castelln,Unknown,Unknown,ES,39.98671255808733,-0.0473897792603565,Business Owner at Location,Operational,1,Type 2 Socket Only,2025-10-31,2025,10,1
462558,Mercadona Moncfar,Moncfar,Moncfar,Unknown,Unknown,ES,39.80523468973559,-0.1411137160351927,Mercadona,Operational,1,Type 2 Socket Only,2025-10-30,2025,10,1
462554,Ayunt. Rafelbuol,Rafelbuol,Rafelbuol,Unknown,Unknown,ES,39.59188976170137,-0.3346534556063716,Iberdrola  BP Pulse ES,Operational,1,Type 2 Socket Only,2025-10-30,2025,10,1
462550,Ayunt. Valencia. Ramn Llull,Valencia,Valencia,Unknown,Unknown,ES,39.47649720524086,-0.3466249050799206,Iberdrola  BP Pulse ES,Operational,1,Type 2 Socket Only,2025-10-30,2025,10,1
462549,Residencia Universitaria Dami Bonet,Valencia,Valencia,Unknown,Unknown,ES,39.47554242166484,-0.344359464438071,Business Owner at Location,Operational,1,Type 2 Socket Only,2025-10-30,2025,10,1
462548,Notel Barcel Valencia,Valencia,Valencia,Unknown,Unknown,ES,39.461361589796354,-0.3522637798062078,Business Owner at Location,Operational,1,Type 2 Socket Only,2025-10-30,2025,10,1
462547,Parking Alameda,Valencia,Valencia,Unknown,Unknown,ES,39.46533038790184,-0.358779067264436,Business Owner at Location,Operational,1,Type 2 Socket Only,2025-10-30,2025,10,1
462546,Ayunt. Valencia. Ava. Blasco Ibaez,Valencia,Valencia,Unknown,Unknown,ES,39.47779109518552,-0.3623292704761525,Iberdrola  BP Pulse ES,Operational,1,Type 2 Socket Only,2025-10-30,2025,10,1
462545,Parking Valencia Centro,Valencia,Valencia,Unknown,Unknown,ES,39.46862269640732,-0.3681577015412358,Business Owner at Location,Operational,4,CCS Type 2CHAdeMOType 2 Tethered Connector Type 2 Socket Only,2025-10-30,2025,10,1
462542,Parking Valeman,Valencia,Valencia,Unknown,Unknown,ES,39.4670210975726,-0.3635002674599263,Business Owner at Location,Operational,1,Type 2 Socket Only,2025-10-30,2025,10,1
462541,Parking Oceanografic,Valencia,Valencia,Unknown,Unknown,ES,39.45224260030892,-0.3480185622697718,Business Owner at Location,Operational,1,Type 2 Tethered Connector,2025-10-30,2025,10,1
462539,ODTU Teknokent Gumus Bloklar,Universiteler Mahallesi,Ankara,Unknown,06800,TR,39.90005472241458,32.77459503250134,Trugo TR,Operational,1,CCS Type 2,2025-10-30,2025,10,1
462538,ODTU Teknokent Gumus Bloklar,Universiteler Mahallesi,Ankara,Unknown,06800,TR,39.89904689957211,32.775858678537816,Trugo TR,Operational,1,CCS Type 2,2025-10-30,2025,10,1
462515,Posto Araras,Av Santa Terzinha 1017,Jardim,MS,Unknown,BR,-21.457169193531826,-56.12052946665517,Unknown Operator,Operational,1,CCS Type 2,2025-10-30,2025,10,1
462514,Buro Berkovitch,Muldersveld 16,Oostakker,Unknown,9041,BE,51.08070564958845,3.777112061359048,Unknown Operator,Operational,1,Type 2 Tethered Connector,2025-10-29,2025,10,1
462513,Buro Berkovitch,Muldersveld 16,Oostakker,Unknown,9041,BE,51.08078424849336,3.777107269125054,Unknown Operator,Not Operational,1,Type 2 Tethered Connector,2025-10-29,2025,10,1
462512,Electric Vehicle Charging Station,Vojvode Stepe 47,Arilje,Serbia,31230,RS,43.74850523533894,20.10512216531663,Unknown Operator,Operational,1,Type 2 Socket Only,2025-10-29,2025,10,1
462511,Obramat Sabadell Zunder,Sabadell,Sabadell,Unknown,Unknown,ES,41.51859914279325,2.099584975929133,Zunder,Operational,3,CCS Type 2Type 2 Socket OnlyCCS Type 2,2025-10-29,2025,10,1
462510,Parking Hospital Manises,Manises,Manises,Unknown,Unknown,ES,39.48592587273234,-0.4529059451199373,Business Owner at Location,Not Operational,1,Type 2 Socket Only,2025-10-29,2025,10,1
462507,MG MAXI Marsa,88 Av. Khaled Ibn El Walid,Marsa,Marsa,Unknown,TN,36.8700651377041,10.308513248096688,Unknown Operator,Operational,1,CCS Type 2,2025-10-29,2025,10,1
462505,Lidl Quart de Poblet,Quart de Poblet,Quart de Poblet,Unknown,Unknown,ES,39.47587141893189,-0.4354321694761438,Lidl,Operational,1,Type 2 Socket Only,2025-10-29,2025,10,1
462504,Galp Mislata,Mistala,Mislata,Unknown,Unknown,ES,39.46931093536648,-0.4332977336514432,GALP Electric,Operational,1,CCS Type 2,2025-10-29,2025,10,1
462503,V2C,Aldaia,Aldaia,Unknown,Unknown,ES,39.46089426760162,-0.4434077997345866,Business Owner at Location,Operational,1,Type 2 Socket Only,2025-10-29,2025,10,1
462502,LOGGEX,Aldaia,Aldaia,Unknown,Unknown,ES,39.45979917829001,-0.434502401793793,Business Owner at Location,Operational,1,Type 2 Socket Only,2025-10-29,2025,10,1
462501,Mound Mini Mart,27885 Mound Rd,Warren,MI,48092,US,42.49806671679758,-83.04708414605778,Red E Charge,Operational,1,CCS Type 1,2025-10-29,2025,10,1
462500,Target - Dabaja Charging,4999 Beck Road,Canton,MI,Unknown,US,42.268459348672536,-83.50327666874932,ChargePoint,Operational,1,CCS Type 1,2025-10-29,2025,10,1
462499,Cherry Republic Glen Arbor,5919 Manitou Vw,Glen Arbor,MI,49636,US,44.89692941277912,-85.9902551235715,Red E Charge,Operational,1,CCS Type 1,2025-10-29,2025,10,1
462498,Carrefour Gijn La Calzada,Gijn,Gijn,Unknown,Unknown,ES,43.536817835189,-5.694626522364018,EDP,Planned For Future Date,2,CCS Type 2Type 2 Socket Only,2025-10-28,2025,10,1
462497,Ayunt. Torrent. Santa Apolonia,Santa Apolonia,Santa Apolonia,Unknown,Unknown,ES,39.41064377584067,-0.4863110360162181,Electromaps,Operational,1,Type 2 Socket Only,2025-10-28,2025,10,1
462496,Ayunt. Torrent. Masa del Juez,Torrent,Torrent,Unknown,Unknown,ES,39.43918473282602,-0.4868374492507428,Electromaps,Operational,1,Type 2 Socket Only,2025-10-28,2025,10,1
462495,Ayunt. Torrent. Auditorio,Torrent,Torrent,Unknown,Unknown,ES,39.42384452242874,-0.4793514608697933,Electromaps,Operational,1,Type 2 Socket Only,2025-10-28,2025,10,1
462494,Ayunt. Torrente. Avda- Olmpica,Torrent,Torrent,Unknown,Unknown,ES,39.42518229637571,-0.4700662837316258,Electromaps,Operational,1,Type 2 Socket Only,2025-10-28,2025,10,1
462493,Interparking Hispania,Torrent,Torrent,Unknown,Unknown,ES,39.43576071489264,-0.4673254690164867,Business Owner at Location,Not Operational,1,Type 2 Socket Only,2025-10-28,2025,10,1
462492,Ayunt. Torrent. Parking Plaza Coln,Torrent,Torrent,Unknown,Unknown,ES,39.43607570900278,-0.4635299380045126,Electromaps,Operational,1,Type 2 Socket Only,2025-10-28,2025,10,1
462491,Ayunt. Picanya Cementerio,Picanya,Picanya,Unknown,Unknown,ES,39.43192438435816,-0.4372915925223424,Unknown Operator,Operational,1,Type 2 Socket Only,2025-10-28,2025,10,1
462490,Shell West Branch,2980 Cook Rd,West Branch,MI,48661,US,44.24896370356655,-84.22655556985478,Shell Recharge Solutions US,Temporarily Unavailable,1,CCS Type 1,2025-10-28,2025,10,1
462488,Holz werk Brserberg,Tschapina 10,Brserberg,Unknown,Unknown,AT,47.13014553251523,9.775542045491877,da emobil,Operational,1,CCS Type 2,2025-10-28,2025,10,1
462487,Oosterscheldestraat,Oosterscheldestraat,Unknown,South Holland,2652 JG,NL,51.9986207,4.4713045,Unknown Operator,Operational,0,Unknown,2025-10-28,2025,10,1
462486,Route220,Via dei Mulini 7,Mantova,MN,Unknown,IT,45.164095,10.788816,Unknown Operator,Operational,1,Type 2 Socket Only,2025-10-28,2025,10,1
462483,Aldi Albal,Catarroja,Catarroja,Unknown,Unknown,ES,39.39990619442452,-0.4064254249054784,ALDI SD DE,Planned For Future Date,1,Type 2 Socket Only,2025-10-28,2025,10,1
462482,Taller de Rodes Catarroja,Catarroja,Catarroja,Unknown,Unknown,ES,39.40263244132245,-0.3947261160997186,Business Owner at Location,Operational,1,Type 2 Socket Only,2025-10-28,2025,10,1
462481,Emotion AdS Scaligera Sud,A4 km 301 verso Trieste,Verona,VR,Unknown,IT,45.410397,11.234368,Unknown Operator,Operational,3,CCS Type 2CHAdeMOType 2 Tethered Connector,2025-10-28,2025,10,1
462480,Plenergy,"Av. del Jarama, 17",Coslada,Madrid,28823,ES,40.43277503401262,-3.5349143417039386,Endesa,Operational,1,CCS Type 2,2025-10-28,2025,10,1
462479,Alquileres HZ,guilas,guilas,Unknown,Unknown,ES,37.41044152472058,-1.5665244876270208,Electromaps,Operational,1,Type 2 Socket Only,2025-10-27,2025,10,1
462477,Hotel MC San Jos,Njar,Njar,Unknown,Unknown,ES,36.76497200001482,-2.1113595099303666,Business Owner at Location,Operational,1,Type 2 Socket Only,2025-10-27,2025,10,1
462476,E.S. COOP Santa Mara Aguila,El Ejido,El Ejido,Unknown,Unknown,ES,36.77832104595194,-2.772846642877994,Business Owner at Location,Operational,3,CCS Type 2CHAdeMOType 2 Tethered Connector,2025-10-27,2025,10,1
462475,Parking Plaza Mayor El Eljido,El Ejido,El Ejido,Unknown,Unknown,ES,36.77440657319633,-2.8132642652363984,Telepark Empark,Operational,1,Type 2 Tethered Connector,2025-10-27,2025,10,1
462474,"EV24 Charging Station, Marymoncka 34",Marymoncka 34,Warszawa,Unknown,00-968,PL,52.2827746013458,20.95984766671963,EV24,Operational,2,Type 2 Tethered Connector Type 2 Tethered Connector,2025-10-27,2025,10,1
462469,"EV24 Charging Station, Kletno 6F",Kletno 6F,Kletno,Unknown,57-550,PL,50.26296179471058,16.870743681259523,EV24,Operational,1,Type 2 Tethered Connector,2025-10-27,2025,10,1
462468,"EV24 Charging Station, Gliwicka 15",Gliwicka 15,Legnica,Unknown,59-200,PL,51.21569009308418,16.173984776265257,EV24,Operational,2,Type 2 Tethered Connector Type 2 Tethered Connector,2025-10-27,2025,10,1
462466,Agriturismo Sulla Via Del Sale,Via Della Pineta,Brallo,pv,Unknown,IT,44.69647689204672,9.260164611240612,Unknown Operator,Operational,1,Unknown,2025-10-27,2025,10,1
462465,Repsol Murcia,Murcia,Murcia,Unknown,Unknown,ES,38.005064941711765,-1.1449943503662323,Repsol - Ibil ES,Planned For Future Date,3,CCS Type 2CHAdeMOType 2 Tethered Connector,2025-10-26,2025,10,1
462464,Mc Donalds El Esparragal,Murcia,Murcia,Unknown,Unknown,ES,38.0469159670223,-1.0873246127055154,Business Owner at Location,Operational,1,Type 2 Socket Only,2025-10-26,2025,10,1
462463,Colturano - Municipio,Via Municipio,Colturano,Milano,20075,IT,45.38112450523488,9.34810094548925,Be Charge Italy,Operational,1,Type 2 Socket Only,2025-10-26,2025,10,1
462462,Dresano - Viale Lombardia,Via Lombardia,Dresano,Milano,20070,IT,45.37315129631912,9.353425468514615,Enel X,Operational,1,CCS Type 2,2025-10-26,2025,10,1
462461,Plenitude,Via Ruggero Grieco 32,Nonantola,MO,Unknown,IT,44.673692,11.038944,Be Charge Italy,Operational,1,Type 2 Socket Only,2025-10-26,2025,10,1
462459,Via Valtorta,Via Valtorta,Milano,Milano,20147,IT,45.50063386786477,9.23122772142358,a2a emoving IT,Operational,1,Type 2 Tethered Connector,2025-10-25,2025,10,1
462458,Via Valtorta,Via Valtorta,Milano,Milano,20127,IT,45.50095293094751,9.233239362378072,Be Charge Italy,Operational,1,Type 2 Tethered Connector,2025-10-25,2025,10,1
462457,Alpenhotel Ensmann,Lassing 55,Gstling an der Ybbs,Lower Austria,3345,AT,47.7455723831587,14.8961446058845,Unknown Operator,Operational,1,CCS Type 2,2025-10-25,2025,10,1
462429,CURB - DH-Szerviz Debrecen,Fredi t 76.,Debrecen,Unknown,4032,HU,47.54149122233571,21.60625744553465,Curb Hungary,Operational,1,Type 2 Socket Only,2025-10-24,2025,10,1
462428,CURB - Kerekestelepi Kemping Debrecen,Lomnic utca 1-3.,Debrecen,Unknown,4030,HU,47.50825055626376,21.63791509026396,Curb Hungary,Operational,1,Type 2 Socket Only,2025-10-24,2025,10,1
462427,Milford Liquor And Gas,1575 S Milford Rd,Highland,MI,48357,US,42.625048,-83.615756,Red E Charge,Operational,1,CCS Type 1,2025-10-24,2025,10,1
462426,"Museo del Motor, Finestrat",Finestrat,Finestrat,Unknown,Unknown,ES,38.54061407615623,-0.1703898079982764,Business Owner at Location,Operational,1,Type 2 Socket Only,2025-10-24,2025,10,1
462425,Saltoki Benidorm,Benidorm,Benidorm,Unknown,Unknown,ES,38.532411007341125,-0.1677417735438666,Electromaps,Operational,1,Type 2 Socket Only,2025-10-24,2025,10,1
462394,Hotel Bundela,Temple Road,Khajuraho,MP,Unknown,IN,24.84121799833644,79.92095530109164,Adani Gas-EV TR,Operational,2,CCS Type 2Type 1 J1772,2025-10-24,2025,10,1
462393,Flying J,16049  Willowbrook Rd,South Beloit,IL,61080,US,42.492898011722616,-88.99937910316282,eVgo Network,Operational,1,CCS Type 1,2025-10-24,2025,10,1
462392,Saint John Irving EV,783 Fairville Blvd,Saint John,NB,E2M 5T9,CA,45.25203405814804,-66.09830925058321,Irving Oil,Operational,2,CCS Type 1CHAdeMO,2025-10-24,2025,10,1
462391,Stratus House,Stratus House,Blanchardstown,Unknown,Dublin 15,IE,53.40719443825208,-6.371945180870853,EZO IE,Operational,1,Type 2 Socket Only,2025-10-23,2025,10,1
462390,Gawcott Fields Business Park,Gawcott Fields Farm,Buckingham,Buckinghamshire,MK18 1TN,GB,51.462419,-0.157305,Monta,Operational,1,Type 2 Socket Only,2025-10-23,2025,10,1
462387,Elektrum Drive Charging Station,Ziepniekkalna iela 20,Riga,Unknown,Unknown,LV,56.90976340219578,24.127261070076884,Unknown Operator,Operational,2,CCS Type 2CCS Type 2,2025-10-23,2025,10,1
462383,Evie Mansfield,Early Street,Mansfield,VIC,Unknown,AU,-37.05103784342149,146.08673665423203,Evie,Operational,2,CCS Type 2CHAdeMO,2025-10-22,2025,10,1
462382,Spital,Spitalstrasse,Grabs,Unknown,Unknown,CH,47.1738205753442,9.4499127578988,MOVE CH,Operational,1,CCS Type 2,2025-10-22,2025,10,1
462381,Aire des mobilits C2N,Intersection D7 et D404,Douvres-la-Dlivrande,Calvados,14440,FR,49.27585565565048,-0.3800338258954525,Unknown Operator,Operational,1,Unknown,2025-10-22,2025,10,1
462380,Cube Stop NH-44,Nagpur To Jabakpur Hughway,Mohgaon,MP,Unknown,IN,21.91423639914423,79.52636658703716,Statiq IN,Operational,1,CCS Type 2,2025-10-22,2025,10,1
462379,Electra centro comm.Gotico,Via Emilia Parmense,Piacenza,Unknown,Unknown,IT,45.02680975428612,9.734926841630909,Electra,Not Operational,1,CCS Type 2,2025-10-22,2025,10,1
462378,SMC BOIS,443 Rue Georges Clemenceau,Les Lucs-sur-Boulogne,Unknown,85170,FR,46.847820281,-1.4974448,Unknown Operator,Operational,3,CCS Type 2Type 2 Socket OnlyCEE 7/4 - Schuko - Type F,2025-10-22,2025,10,1
462376,Via Fermi,Via Fermi,Dresano,Milano,20070,IT,45.370925585883725,9.355445975130236,Enel X,Operational,1,CCS Type 2,2025-10-21,2025,10,1
462375,Via delle Industrie,Via delle Industrie,Dresano,Milano,20070,IT,45.36922894659446,9.356756838784465,Enel X,Operational,1,CCS Type 2,2025-10-21,2025,10,1
462374,Viale Sarmazzano,Viale Sarmazzano,Vizzolo Predabissi,Milano,20070,IT,45.36615709475896,9.338296169946034,Duferco Energie,Operational,2,Type 2 Socket OnlySCAME Type 3A Low Power,2025-10-21,2025,10,1
462373,Piazza Piemonte,Piazza Piemonte,Melegnano,Milano,20077,IT,45.3627611673908,9.32085250034322,Enel X,Operational,1,CCS Type 2,2025-10-21,2025,10,1
462372,IPlanet Via Facciolati,Via Facciolati 52,Padova,PD,35126,IT,45.39642343613022,11.887950146570349,Unknown Operator,Operational,1,CCS Type 2,2025-10-21,2025,10,1
462371,IPlanet Via Del Plebiscito,Via Del Plebiscito,Padova,PD,35011,IT,45.43159634486904,11.898746230248436,Unknown Operator,Operational,1,CCS Type 2,2025-10-21,2025,10,1
462370,IPlanet Trento,Via Druso Livio 12,Trento,TN,38122,IT,46.07701736443582,11.11390308629234,Unknown Operator,Operational,1,CCS Type 2,2025-10-21,2025,10,1
462369,IPlanet Castelnuovo Del Garda,"Strada Statale 11, tangenziale di Peschiera",Castelnuovo Del Garda,VR,37014,IT,45.42996222304751,10.714031629882244,Unknown Operator,Operational,1,CCS Type 2,2025-10-21,2025,10,1
462368,IPlanet San Martino Buon Albergo,Via XX Settembre 70C,San Martino Buon Albergo,VR,37036,IT,45.42429588729155,11.085440678746409,Unknown Operator,Operational,4,CCS Type 2CCS Type 2CHAdeMOType 2 Socket Only,2025-10-21,2025,10,1
462367,Electrip Eurospin Valmontone,Largo Patellani,Valmontone,Unknown,00038,IT,41.766233029842994,12.92930103180788,Electrip,Operational,1,CCS Type 2,2025-10-21,2025,10,1
462366,Rathaus,Poststrasse,Ruggell,Unknown,9491,LI,47.24059227182437,9.524974181470157,LKW - Liechtensteiner Kraftwerke LI,Operational,1,Type 2 Socket Only,2025-10-21,2025,10,1
462365,EweGo,Am Auer Bach 2,Reichertshofen,Bayern,85084,DE,48.644295,11.520099,EWE,Operational,1,CCS Type 2,2025-10-21,2025,10,1
462364,E.S. Pina de Ebro Dir. Zaragoza,Zaragoza,Zaragoza,Unknown,Unknown,ES,41.52616411330942,-0.3971466952566516,Endesa,Planned For Future Date,2,CCS Type 2Type 2 Socket Only,2025-10-21,2025,10,1
462363,BSY Charge Point,25th km Salyan hwy,Sahil,Garadagh,Unknown,AZ,40.26534861424608,49.66610563104098,Private Residence/Individual,Operational,2,CCS Type 2IEC 60309 3-pin,2025-10-21,2025,10,1
462360,OTOJET,2148. Sk. 4,Bayrakli,Izmir,35540,TR,38.480582,27.180513,Otojet,Operational,2,CCS Type 2Type 2 Socket Only,2025-10-20,2025,10,1
462359,OTOJET,Izmir Cevre Yolu,Karsiyaka,Izmir,35575,TR,38.488231,27.105028,Otojet,Operational,1,CCS Type 2,2025-10-20,2025,10,1
462357,Tuncmatik Charge,364. Sk. 1 35100,Bornova,Izmir,Unknown,TR,38.445314,27.206062,Voltrun,Operational,1,CCS Type 2,2025-10-20,2025,10,1
462353,CarsCharge,Hasan Aliyev street,Baku,Baku,Unknown,AZ,40.39577031483154,49.81998504014018,Touch RU,Operational,2,CCS Type 2Unknown,2025-10-20,2025,10,1
462352,EMS Baku Mall,Hasan bey Zerdabi 183,Baku,Baku,Unknown,AZ,40.389987549876935,49.807198770187824,Touch RU,Operational,2,CCS Type 2Unknown,2025-10-20,2025,10,1
462351,Bedinoto Tecnologa Cruz Alta,R. Nossa Sra. Auxiliadora,Cruz Alta,Rio Grande del sur,98005,BR,-28.64845291370878,-53.589618451832905,Unknown Operator,Operational,1,CCS Type 2,2025-10-20,2025,10,1
462350,Jardin Juarez Evergo,Luis Donaldo Colosio  Juarez,Hermosillo,Sonora,Unknown,MX,29.081066773179472,-110.95137921505034,Evergo,Operational,2,CCS Type 1GB-T DC - GB/T 20234.3,2025-10-20,2025,10,1
462349,2 Wanless Road,2 Wanless Road,Unknown,Unknown,Unknown,GB,51.46451779383881,-0.101028640227696,Clenergy,Operational,2,Type 2 Socket OnlyType 2 Socket Only,2025-10-20,2025,10,1
462348,Aldi Sud Lindau,Von-Behring Strasse,Lindau,Unknown,88131,DE,47.55058677980449,9.722241839738103,ALDI SD DE,Operational,2,CCS Type 2Type 2 Tethered Connector,2025-10-20,2025,10,1
462347,Rochestown Park Hotel,Rochestown Rd,Unknown,Co. Cork,Unknown,IE,51.87978545708973,-8.424151903268722,EZO IE,Operational,1,Type 2 Socket Only,2025-10-19,2025,10,1
462345,Hiperber Elche,Elche,Elche,Unknown,Unknown,ES,38.26873955352914,-0.7150368839885459,Iberdrola  BP Pulse ES,Operational,1,CCS Type 2,2025-10-19,2025,10,1
462344,Hiperber Torrellano,Torrellano,Torrellano,Unknown,Unknown,ES,38.29188547312416,-0.5917475372642684,Iberdrola  BP Pulse ES,Operational,1,CCS Type 2,2025-10-19,2025,10,1
462343,Ayunt. Elche. Arenales del Sol,Arenales del Sol,Arenales del Sol,Unknown,Unknown,ES,38.25771360028958,-0.5177578148179691,Unknown Operator,Planned For Future Date,1,Type 2 Socket Only,2025-10-19,2025,10,1
462342,Plenoil Santa Pola,Santa Pola,Santa Pola,Unknown,Unknown,ES,38.19930016023434,-0.5670441345251902,Plenoil ES,Operational,1,CCS Type 2,2025-10-19,2025,10,1
462341,Cooperativa Elctrica Benfica Catralense,Catral,Catral,Unknown,Unknown,ES,38.15985387716657,-0.8047502867264029,Unknown Operator,Operational,1,CCS Type 2,2025-10-19,2025,10,1
462340,Enel Conad Villa Sesso,Via Dei Gonzaga 55,Reggio Emilia,RE,Unknown,IT,44.743998,10.608628,Enel X,Operational,1,CCS Type 2,2025-10-19,2025,10,1
462338,Playa Finestrat,Finestrat,Finestrat,Unknown,Unknown,ES,38.52496140052455,-0.1674247302419189,Iberdrola  BP Pulse ES,Operational,1,Type 2 Tethered Connector,2025-10-19,2025,10,1
462337,Sonrisa Apartaments,Benidorm,Benidorm,Unknown,Unknown,ES,38.53285590434413,-0.16206479475386,Business Owner at Location,Operational,1,Type 2 Socket Only,2025-10-19,2025,10,1
462336,Hotel Olympus,Benidorm,Benidorm,Unknown,Unknown,ES,38.543732867591615,-0.1345740673104956,Business Owner at Location,Operational,1,Type 2 Socket Only,2025-10-19,2025,10,1
462335,Hotel Rosamar,Benidorm,Benidorm,Unknown,Unknown,ES,38.53769112123692,-0.1105902703301353,Business Owner at Location,Operational,1,Type 2 Socket Only,2025-10-19,2025,10,1
462334,Lidl Benidorm,Benidorm,Benidorm,Unknown,Unknown,ES,38.53987617742058,-0.1039164880337466,Lidl,Operational,1,Type 2 Socket Only,2025-10-19,2025,10,1
462333,Hotel Deloix,Benidorm,Benidorm,Unknown,Unknown,ES,38.54653453100048,-0.0988856697267692,Business Owner at Location,Operational,1,Type 2 Socket Only,2025-10-19,2025,10,1
462332,"Camping Rac, Benidorm",Benidorm,Benidorm,Unknown,Unknown,ES,38.548865088041424,-0.098759749495457,Business Owner at Location,Operational,1,Type 2 Socket Only,2025-10-19,2025,10,1
462331,Mercadona Cocentaina,Cocentaina,Cocentaina,Unknown,Unknown,ES,38.7418987784308,-0.4377950925322693,Mercadona,Operational,1,Type 2 Socket Only,2025-10-19,2025,10,1
462330,Ayunt. Muro de Alcoy,Muro de Alcoy,Muro de Alcoy,Unknown,Unknown,ES,38.77701698620899,-0.4453055131011751,Unknown Operator,Operational,1,Type 2 Socket Only,2025-10-19,2025,10,1
462329,Ayunt.  Callosa DEnSarri. Parking,Callosa DEnSarri,Callosa DEnSarri,Unknown,Unknown,ES,38.65144356743224,-0.1203113266759601,Unknown Operator,Not Operational,1,Type 2 Socket Only,2025-10-19,2025,10,1
462328,Ayunt. Callosa DEnSarri- Polica Local,Callosa DEnSarri,Callosa DEnSarri,Unknown,Unknown,ES,38.65119092943797,-0.1224303383124834,Unknown Operator,Operational,1,Type 2 Socket Only,2025-10-19,2025,10,1
462327,Casa Rural Finca Tosal,Bolulla,Bolulla,Unknown,Unknown,ES,38.67050769266893,-0.0959451373546471,Business Owner at Location,Operational,1,Type 2 Socket Only,2025-10-19,2025,10,1
462326,Aldi Ondara,Ondara,Ondara,Unknown,Unknown,ES,38.8162977730172,0.0228667500435904,REMO Mobility ES,Operational,2,CCS Type 2Type 2 Socket Only,2025-10-19,2025,10,1
462325,Hotel Daniya Dnia,Dnia,Dnia,Unknown,Unknown,ES,38.84666785207517,0.0989593068503609,Business Owner at Location,Operational,1,Type 2 Socket Only,2025-10-19,2025,10,1
462324,Ayunt. Sanet i Els Negrals Biblioteca Municipal,Sanet i Els Negrals,Sanet i Els Negrals,Unknown,Unknown,ES,38.819706125841634,-0.0354807617146661,Unknown Operator,Operational,1,Type 2 Socket Only,2025-10-19,2025,10,1
462323,E.S. Agullent,Agullent,Agullent,Unknown,Unknown,ES,38.82767074461597,-0.5607260722184719,Endesa,Operational,1,CCS Type 2,2025-10-19,2025,10,1
462322,Moixent Polgono,Moixent,Moixent,Unknown,Unknown,ES,38.873178328097,-0.7670451984415649,Unknown Operator,Not Operational,1,Type 2 Socket Only,2025-10-19,2025,10,1
462321,Casa de la Cultura Montesa,Montesa,Montesa,Unknown,Unknown,ES,38.94946888342457,-0.6495913600045924,Unknown Operator,Not Operational,1,Type 2 Socket Only,2025-10-19,2025,10,1
462320,Ayunt. Alfahuir,Alfahuir,Alfahuir,Unknown,Unknown,ES,38.92958128354695,-0.2505060051944383,Unknown Operator,Operational,1,Type 2 Socket Only,2025-10-19,2025,10,1
462319,Popeyes Ganda,Ganda,Ganda,Unknown,Unknown,ES,38.95682711013225,-0.1748627569882046,Iberdrola  BP Pulse ES,Planned For Future Date,1,CCS Type 2,2025-10-19,2025,10,1
462318,Ayunt. Refelcofer,Refelcofer,Refelcofer,Unknown,Unknown,ES,38.93182612452566,-0.1687159705406884,Unknown Operator,Operational,1,Type 2 Socket Only,2025-10-19,2025,10,1
462317,Ayunt. Alqueria de la Condesa. Parking,Alqueria de la Condesa,Alqueria de la Condesa,Unknown,Unknown,ES,38.93666531717005,-0.1491018833103226,Unknown Operator,Operational,1,Type 2 Socket Only,2025-10-19,2025,10,1
462316,Ayunt. Guardamar de la Safor Playa,Guardamar de la Safor,Guardamar de la Safor,Unknown,Unknown,ES,38.966951905879455,-0.1366641957616821,Fenie Energa Spain,Operational,1,Type 2 Socket Only,2025-10-19,2025,10,1
462315,Ayunt. Daimus,Daimus,Daimus,Unknown,Unknown,ES,38.97103900431051,-0.1542045166821708,Unknown Operator,Operational,1,Type 2 Socket Only,2025-10-19,2025,10,1
462314,Cepsa Ganda,Ganda,Ganda,Unknown,Unknown,ES,38.983132279372086,-0.1843762506049415,CEPSA ES,Planned For Future Date,1,CCS Type 2,2025-10-19,2025,10,1
462313,Centro Multiaventura Vaya Tela,Ganda,Gada,Unknown,Unknown,ES,38.98710999215393,-0.1693773138758842,Business Owner at Location,Operational,1,CEE 7/4 - Schuko - Type F,2025-10-19,2025,10,1
462312,Aldi Ganda,Ganda,Ganda,Unknown,Unknown,ES,38.984973767915136,-0.1641058893308127,REMO Mobility ES,Operational,2,CCS Type 2Type 2 Socket Only,2025-10-19,2025,10,1
462311,Mercadona Tavernes de la Valldigna,Tavernes de la Valldigna,Tavernes de la Valldigna,Unknown,Unknown,ES,39.071254776591616,-0.2607193425021705,Mercadona,Operational,1,Type 2 Socket Only,2025-10-19,2025,10,1
462310,Ayunt. Carcaixent. Plaza de Espaa,Carcaixent,Carcaixent,Unknown,Unknown,ES,39.119394600162025,-0.4461930576030681,Qwello,Operational,1,Type 2 Socket Only,2025-10-19,2025,10,1
462309,Repsol Carcaixent,Carcaixent,Carcaixent,Unknown,Unknown,ES,39.12641209716031,-0.4500244879782258,Repsol - Ibil ES,Operational,3,CCS Type 2CHAdeMOType 2 Tethered Connector,2025-10-19,2025,10,1
462308,Ayunt. Carcaixent Jose Vidal,Jose Vidal,Carcaixent,Unknown,Unknown,ES,39.1244983916896,-0.4482328926110313,Qwello,Operational,1,Type 2 Socket Only,2025-10-19,2025,10,1
462307,AMCOR FLEXIBLES ESPAA SL,Alzira,Alzira,Unknown,Unknown,ES,39.13232704930326,-0.4135057997448257,Electromaps,Operational,1,Type 2 Socket Only,2025-10-19,2025,10,1
462306,Aldi Alzira,Alzira,Alzira,Unknown,Unknown,ES,39.15105141848619,-0.4255982162958389,ALDI SD DE,Operational,1,Type 2 Socket Only,2025-10-19,2025,10,1
462305,Burger King Alzira,Alzira,Alzira,Unknown,Unknown,ES,39.16098507754143,-0.4309501165485017,Iberdrola  BP Pulse ES,Operational,2,CCS Type 2CHAdeMO,2025-10-19,2025,10,1
462304,Consum Cullera Endesa,Cullera,Cullera,Unknown,Unknown,ES,39.1625722121878,-0.2463673007067655,Endesa,Operational,1,Type 2 Socket Only,2025-10-19,2025,10,1
462303,Ayunt. Albalat de la Ribera,Albalat de la Ribera,Albalat de la Ribera,Unknown,Unknown,ES,39.204482585175526,-0.3875986437335541,Iberdrola  BP Pulse ES,Planned For Future Date,1,Type 2 Socket Only,2025-10-19,2025,10,1
462302,Lidl Algemes,Algemes,Algemes,Unknown,Unknown,ES,39.19691270846931,-0.4365970971637125,Lidl,Operational,1,Type 2 Socket Only,2025-10-19,2025,10,1
462301,Circuit de la Ribera,Algemes,Algemes,Unknown,Unknown,ES,39.22568705887719,-0.4668461957620593,Business Owner at Location,Operational,1,Type 2 Socket Only,2025-10-19,2025,10,1
462300,Area Comercial Carlet,Carlet,Carlet,Unknown,Unknown,ES,39.218158606912965,-0.5173134642244577,Electromaps,Operational,3,CCS Type 2CHAdeMOType 2 Socket Only,2025-10-19,2025,10,1
462299,Stadthaus,Schachenstrasse 2,Rapperswil-Jona,SG,8645,CH,47.22948282660752,8.837585870027965,eCarUp CH,Operational,1,Type 2 Socket Only,2025-10-19,2025,10,1
462298,Parcheggio Via Pertini,Via Sandro Pertini,Melegnano,Melegnano,20077,IT,45.35800376394096,9.318768071451132,Enel X,Operational,1,CCS Type 2,2025-10-19,2025,10,1
462295,Estacionamento Caldas Novas,"R. Machado de Assis, 410 - Termal, Caldas Novas - GO, 75680-074, Brasil",Caldas Novas,Gois,75680-074,BR,-17.744608177194195,-48.63081480014415,Unknown Operator,Operational,1,CCS Type 2,2025-10-19,2025,10,1
462289,Atacado Dia a Dia,"rea 49, Rua JB 21 Jardim Belvedere GO-309, Caldas Novas - GO, 75680-001, Brazil",Caldas Novas,Minas Gerais,75680-001,BR,-17.72412961098668,-48.64193848726319,Unknown Operator,Operational,1,CCS Type 2,2025-10-19,2025,10,1
462288,Anglesey Terrace,Anglesey Terrace,Greenore,Co. Louth,Unknown,IE,54.03169103537101,-6.133892343845105,Weev,Operational,1,Type 2 Socket Only,2025-10-19,2025,10,1
462286,Euro Business Park,Euro Business Park,Little Island,Co. Cork,Unknown,IE,51.90557184051144,-8.352709974050867,ePower,Planned For Future Date,1,CCS Type 2,2025-10-18,2025,10,1
462285,Restauroute Rose de la Broye,A1,Lully,Unknown,Unknown,CH,46.8319077377586,6.858095142680668,MOVE CH,Operational,3,CCS Type 2Type 2 Socket OnlyCHAdeMO,2025-10-18,2025,10,1
462284,Evergo - Novey Los Angeles,"C. 64B Oeste, Panam, Provincia de Panam",Unknown,Unknown,Unknown,PA,9.001830276030944,-79.52919677458499,Evergo,Operational,2,CCS Type 1CHAdeMO,2025-10-18,2025,10,1
462283,Acea Futura,Via Statale 22,Scandiano,RE,Unknown,IT,44.599239,10.694955,Be Charge Italy,Operational,1,Type 2 Socket Only,2025-10-18,2025,10,1
462282,Hub Peraleda Wenea,Peraleda de la Mata,Peraleda de la Mata,Unknown,Unknown,ES,39.89192448185304,-5.427291794594481,Wenea,Planned For Future Date,1,CCS Type 2,2025-10-18,2025,10,1
462281,Hub Tordesillas Wenea,Tordesillas,Tordedillas,Unknown,Unknown,ES,41.51569370946322,-5.01872348769021,Wenea,Planned For Future Date,1,CCS Type 2,2025-10-17,2025,10,1
462280,Drinagh Business Park,Drinagh Business Park,Drinagh,Co. Wexford,Unknown,IE,52.30846823627297,-6.462794231998259,EVBox,Operational,1,Type 2 Socket Only,2025-10-17,2025,10,1
462279,BM Munga,Munga,Munga,Unknown,Unknown,ES,43.35517844502724,-2.8544964995580813,Zunder,Operational,2,CCS Type 2Type 2 Socket Only,2025-10-17,2025,10,1
462278,Centro Deportivo La Marazuela,Las Rozas,Las Rozas,Unknown,Unknown,ES,40.50020752418149,-3.8688994655595934,Business Owner at Location,Operational,1,Type 2 Socket Only,2025-10-17,2025,10,1
462277,Ayunt. Las Rozas. Navalcarbn,Las Rozas,Las Rozas,Unknown,Unknown,ES,40.51623582156688,-3.8993214244108,Zunder,Operational,1,Type 2 Socket Only,2025-10-17,2025,10,1
462269,Ionna Rechargery,1017 Douglas Blvd.,Roseville,CA,95678,US,38.744073964938224,-121.27781809766373,IONNA,Planned For Future Date,2,CCS Type 1NACS / Tesla Supercharger,2025-10-17,2025,10,1
462268,OPLUG 24h,Av cerro azul 2579,Maringa,PR,Unknown,BR,-23.44995901708917,-51.93206863767148,Unknown Operator,Operational,1,CCS Type 2,2025-10-17,2025,10,1
462228,IONNA Kutztown Rechargery  Sheetz,2298 Golden Key Road,Kutztown,PA,19530,US,40.58243638718128,-75.70886600000216,IONNA,Operational,2,CCS Type 1NACS / Tesla Supercharger,2025-10-16,2025,10,1
462227,IONNA Middletown Rechargery Relay,300 Middletown Parkway,Middletown,MD,21769,US,39.43728878949082,-77.52915716886974,IONNA,Operational,2,CCS Type 1NACS / Tesla Supercharger,2025-10-16,2025,10,1
462226,IONNA Raleigh Rechargery Relay,4237 Louisburg Road,Raleigh,NC,27604,US,35.84159568302509,-78.57751219224707,IONNA,Operational,2,CCS Type 1NACS / Tesla Supercharger,2025-10-16,2025,10,1
462225,IONNA Beaver Rechargery Relay,1360 300 W,Beaver,UT,84713,US,38.2922729090977,-112.64654849472242,IONNA,Operational,2,CCS Type 1NACS / Tesla Supercharger,2025-10-16,2025,10,1
462201,Advance Service,Eastpoint Business Park,East Wall,Unknown,Dublin 3,IE,53.35764365830261,-6.229111209483904,EZO IE,Operational,1,Type 2 Socket Only,2025-10-16,2025,10,1
462200,The Waterside,Charlotte Quay Dock,Unknown,Unknown,Dublin 4,IE,53.34242682654022,-6.235616168908109,EZO IE,Operational,1,Type 2 Socket Only,2025-10-16,2025,10,1
462199,Guinness Enterprise Centre,Taylors Lane,The Liberties,Unknown,Dublin 8,IE,53.34084027398157,-6.284232228026326,EZO IE,Operational,1,Type 2 Socket Only,2025-10-16,2025,10,1
462198,Dromhall Hotel,Muckross Rd,Killarney,Co. Kerry,Unknown,IE,52.05340886204286,-9.506540166638956,EZO IE,Planned For Future Date,1,CCS Type 2,2025-10-16,2025,10,1
462197,Roig Arena,Valencia,Valencia,Unknown,Unknown,ES,39.44836878556109,-0.3644884550848246,Iberdrola  BP Pulse ES,Operational,2,CCS Type 2Type 2 Tethered Connector,2025-10-16,2025,10,1
462196,Tesla Supercharger Rumia,Grunwaldzka 108,Rumia,Unknown,84-230,PL,54.58568532884112,18.371422251834133,Tesla Tesla-only charging,Operational,1,CCS Type 2,2025-10-16,2025,10,1
462195,Uno-x,Hestkrvej 1,Hjrring,Unknown,9800,DK,57.4562703942203,10.011218100124552,Unknown Operator,Operational,1,CCS Type 2,2025-10-16,2025,10,1
462194,GoFar 20 Yanvar,Tbilisi Avenue,Baku,Baku,Unknown,AZ,40.401270978621056,49.81064115186496,Gofar az,Operational,2,CCS Type 2Unknown,2025-10-16,2025,10,1
462193,TOK.az,Tbilisi propsekti,Baku,Baku,Unknown,AZ,40.392545350257535,49.82377907990292,Unknown Operator,Operational,2,CCS Type 2Unknown,2025-10-16,2025,10,1
462192,iVolt,Matbuat Avenue,Baku,Baku,Unknown,AZ,40.37829233651621,49.80808415224021,Unknown Operator,Operational,2,CCS Type 2Unknown,2025-10-16,2025,10,1
462174,EDS La Glorieta No 2 - ERCO,Carrera 24 A  1BN - 04,Buga,Valle,763042,CO,3.8949639742142095,-76.31192809466732,Unknown Operator,Operational,3,CCS Type 1CCS Type 2GB-T DC - GB/T 20234.3,2025-10-15,2025,10,1
462173,EDS Cootracaime - ERCO,Cra. 7 14 - 02,Cajamarca,Tolima,732501,CO,4.440320439119487,-75.4314694668394,Unknown Operator,Operational,3,CCS Type 1CCS Type 2GB-T DC - GB/T 20234.3,2025-10-15,2025,10,1
462172,ERCO - Outlet de Moda,Cl. 16 55-129,Medellin,Antioquia,050024,CO,6.21940442514798,-75.8333169046327,Unknown Operator,Operational,2,CCS Type 1CCS Type 2,2025-10-15,2025,10,1
462171,Eletroposto Kinsol Dom Pedro,"Av. Dom Pedro I, 1470 - Ipiranga, Ribeiro Preto - SP, 14055-630",Ribeiro Preto,So Paulo,14055630,BR,-21.151442502468274,-47.82489361374516,Zeta Uno BR,Operational,1,CCS Type 2,2025-10-15,2025,10,1
462170,CURB - Polyduct Ndudvar,Kabai utca 62.,Ndudvar,Unknown,4181,HU,47.417240581046286,21.175289942385007,Curb Hungary,Operational,1,CCS Type 2,2025-10-15,2025,10,1
462169,St Finbarrs CNU,St Finbarrs Hospital,Douglas,Co. Cork,Unknown,IE,51.88858406939974,-8.461406339680252,GoCharge IE,Operational,1,Type 2 Socket Only,2025-10-15,2025,10,1
462168,The K Club,The K Club,Straffan,Co. Kildare,Unknown,IE,53.308235613532645,-6.622424096707618,Smappee,Operational,1,Type 2 Socket Only,2025-10-15,2025,10,1
462167,The K Club,The K Club,Straffan,Co. Kildare,Unknown,IE,53.308085098616345,-6.623917029108952,Smappee,Operational,1,Type 2 Socket Only,2025-10-15,2025,10,1
462166,Carrigallen,Main St,Carrigallen,Co. Leitrim,Unknown,IE,53.97692404403142,-7.644185639246643,Smappee,Operational,1,Type 2 Socket Only,2025-10-15,2025,10,1
462164,Electra - Cran-Gevrier - Campanile Annecy Sud,4 Impasse des Crts,Cran-Gevrier,Unknown,74960,FR,45.90015486214571,6.10283794987879,Electra,Operational,2,CCS Type 2Type 2 Socket Only,2025-10-14,2025,10,1
462163,Pembroke Kilkeny,Patrick St,Kilkenny,Co. Kilkenny,Unknown,IE,52.64943752366853,-7.250727976095277,ePower,Operational,1,Type 2 Socket Only,2025-10-14,2025,10,1
462161,A.S. La Pedresina,Fuentes De Ooro,Fuentes De Ooro,Unknown,Unknown,ES,40.59204122894491,-6.791039184278503,Wenea,Operational,1,CCS Type 2,2025-10-13,2025,10,1
462160,TC Mihajlovic,Sremska 1,Bijeljina,RS,76300,BA,44.76327083258676,19.210026053151523,Moon Power,Operational,1,CCS Type 2,2025-10-13,2025,10,1
462159,Rapparees Starlights GAA Club,McCauley Park Bellefield,Enniscorthy,Co. Wexford,Unknown,IE,52.50471784934874,-6.578531051026914,EZO IE,Operational,1,CCS Type 2,2025-10-13,2025,10,1
462158,Lidl Dunboyne,Main St,Dunboyne,Co. Meath,Unknown,IE,53.42038953321085,-6.473416385505743,EZO IE,Operational,3,CHAdeMOCCS Type 2Type 2 Tethered Connector,2025-10-13,2025,10,1
462157,The Lavey Inn,R165,Knockanoark,Co. Cavan,Unknown,IE,53.96663326928507,-7.228897833765018,EZO IE,Operational,1,CCS Type 2,2025-10-13,2025,10,1
462156,The Planet Athlone,Diskin Centre,Athlone,Co. Westmeath,Unknown,IE,53.42836131025567,-7.951109136089713,EZO IE,Operational,1,CCS Type 2,2025-10-13,2025,10,1
462155,Ayunt. Soneja,Soneja,Soneja,Unknown,Unknown,ES,39.815744054808704,-0.4301869961913098,Unknown Operator,Not Operational,1,Type 2 Socket Only,2025-10-13,2025,10,1
462154,Ayunt. Serra,Serra,Serra,Unknown,Unknown,ES,39.683688478077045,-0.4305060153787963,Unknown Operator,Operational,2,Type 2 Socket OnlyCEE 7/4 - Schuko - Type F,2025-10-13,2025,10,1
462153,ELETROPOSTOGP 001-Gerao Prpria,"Novo Paraso, 118 - Novo Paraso, Estrela - RS, 95880-000, Brasil",Estrela,rio grande do sul,95880-000,BR,-29.49320354792397,-51.92751382683173,Unknown Operator,Operational,1,CCS Type 2,2025-10-13,2025,10,1
462148,FastWay,Via Emilia Ovest 117,Modena,MO,Unknown,IT,44.650154,10.916288,Unknown Operator,Operational,1,CCS Type 2,2025-10-13,2025,10,1
462143,Ayunt. Torrebaja,Torrebaja,Torrebaja,Unknown,Unknown,ES,40.10147399819931,-1.2586977689398964,Unknown Operator,Operational,1,Type 2 Socket Only,2025-10-13,2025,10,1
462142,Ferretera Blasco,Molina de Aragn,Molina de Aragn,Unknown,Unknown,ES,40.84513254865129,-1.883851417498136,Business Owner at Location,Operational,1,Type 2 Socket Only,2025-10-13,2025,10,1
462141,E.S. Repsol Teruel,Teruel,Teruel,Unknown,Unknown,ES,40.35761058088602,-1.1361022925633506,Repsol - Ibil ES,Operational,3,CCS Type 2CHAdeMOType 2 Tethered Connector,2025-10-13,2025,10,1
462139,Subestacin Fuendetodos,Fuendetodos,Fuendetodos,Unknown,Unknown,ES,41.33808465920509,-0.977343779900366,Iberdrola  BP Pulse ES,Operational,1,Type 2 Tethered Connector,2025-10-13,2025,10,1
462138,Estacin Esqu Valdelinares,Valdelinares,Valdelinares,Unknown,Unknown,ES,40.37927131048323,-0.633543344937948,Endesa,Operational,1,Type 2 Socket Only,2025-10-13,2025,10,1
462137,Ayunt. Olba,Olba,Olba,Unknown,Unknown,ES,40.13316681571956,-0.6274882719862944,Unknown Operator,Not Operational,1,Type 2 Socket Only,2025-10-13,2025,10,1
462133,ALDI SD Mnchen-Mittelsendling,Zielstattstrae 73,Mnchen,Bavaria,81379,DE,48.10140500464124,11.52542282578804,ALDI SD DE,Operational,3,CCS Type 2CCS Type 2Type 2 Socket Only,2025-10-13,2025,10,1
462130,Ayunt. Gaibiel,Gaibiel,Gaibiel,Unknown,Unknown,ES,39.92756882757885,-0.4938624884665614,Iberdrola  BP Pulse ES,Operational,1,Type 2 Tethered Connector,2025-10-13,2025,10,1
462128,Rest. Mas de Roures,Val dAlba,Val dAlba,Unknown,Unknown,ES,40.18476986954241,-0.0257629510018659,Business Owner at Location,Operational,1,Type 2 Socket Only,2025-10-13,2025,10,1
462127,Kimco-charlotte,5541 South Blvd,Charlotte,NC,28210,US,35.16030906871168,-80.87590677279877,Unknown Operator,Operational,2,CCS Type 1CHAdeMO,2025-10-13,2025,10,1
462126,MUUN LANDSCAPE HOTEL,La Cuba,La Cuba,Unknown,Unknown,ES,40.55272820407535,-0.3156347887834272,Business Owner at Location,Operational,1,Type 2 Socket Only,2025-10-12,2025,10,1
462125,Ayunt. Oliete,Oliete,Oliete,Unknown,Unknown,ES,40.99847267733492,-0.6713084461160861,Unknown Operator,Operational,2,Type 2 Socket OnlyCEE 7/4 - Schuko - Type F,2025-10-12,2025,10,1
462123,Poste Italiane,Via Giovanni Boccaccio 1,Carpaneto Piacentino,PC,Unknown,IT,44.916704,9.789965,Be Charge Italy,Operational,2,CCS Type 2Type 2 Socket Only,2025-10-12,2025,10,1
462122,LES Renault Fraga,Fraga,Fraga,Unknown,Unknown,ES,41.517883894816464,0.3234272264728588,Business Owner at Location,Operational,1,Type 2 Socket Only,2025-10-12,2025,10,1
462121,Supermercado Orangutan,Fraga,Fraga,Unknown,Unknown,ES,41.521752639805015,0.3370845177491901,Business Owner at Location,Operational,1,Type 2 Socket Only,2025-10-12,2025,10,1
462120,Ayunt. Soses,Soses,Soses,Unknown,Unknown,ES,41.53277956763248,0.487635650389393,Unknown Operator,Not Operational,1,Type 2 Socket Only,2025-10-12,2025,10,1
462119,AN Energticos - Estiche de Cinca,Estiche de Cinca,Estiche de Cinca,Unknown,Unknown,ES,41.81520226029272,0.1184221145666697,Iberdrola  BP Pulse ES,Operational,2,CCS Type 2CHAdeMO,2025-10-12,2025,10,1
462118,Ewiva Decathlon,Viale dell Artigianato 88,Piacenza,PC,Unknown,IT,45.043512,9.740262,Ewiva IT,Operational,1,CCS Type 2,2025-10-12,2025,10,1
462117,Polestar Sandyford,37 Heather Rd,Unknown,Unknown,Dublin 18,IE,53.27425426376803,-6.212188600693708,Business Owner at Location,Operational,1,CCS Type 2,2025-10-12,2025,10,1
462116,Tulay EV Charging Station,Petra St.,Irbid,Unknown,Unknown,JO,32.52337336724635,35.901265305930224,Unknown Operator,Operational,3,CHAdeMOCCS Type 2GB-T DC - GB/T 20234.3,2025-10-12,2025,10,1
462111,Shell - Novi,47300 Citygate,Novi,MI,48374,US,42.49111094266692,-83.51430654375649,Red E Charge,Operational,2,CCS Type 1NACS / Tesla Supercharger,2025-10-11,2025,10,1
462110,Korenbloemenstraat,Korenbloemenstraat,Halle-Vilvoorde,Halle-Vilvoorde,1950,BE,50.8493360363847,4.470932022347142,Unknown Operator,Operational,1,CCS Type 2,2025-10-11,2025,10,1
462109,Parque Cientfico TecnoAlcal Wenea,Alcal,Alcal,Unknown,Unknown,ES,40.51443846146447,-3.340172613525965,Wenea,Operational,2,CCS Type 2Type 2 Socket Only,2025-10-11,2025,10,1
462108,Parque Cientfico TecnoAlcal Wenea,Alcal,Alcal,Unknown,Unknown,ES,40.51515424296113,-3.3390980031118715,Wenea,Operational,2,CCS Type 2Type 2 Socket Only,2025-10-11,2025,10,1
462107,Parque Cientfico TecnoAlcal Wenea,Alcal,Alcal,Unknown,Unknown,ES,40.51668397925957,-3.3408509471632897,Wenea,Operational,2,CCS Type 2Type 2 Socket Only,2025-10-11,2025,10,1
462106,Parque Cientfico TecnoAlcal Wenea,Alcal,Alcal,Unknown,Unknown,ES,40.51822818766172,-3.342641532241487,Wenea,Operational,2,CCS Type 2Type 2 Socket Only,2025-10-11,2025,10,1
462105,Enbw,Klner strae 1,Eschweiler,Unknown,52249,DE,50.82024991056037,6.296469228653905,EnBW D,Operational,2,CCS Type 2CCS Type 2,2025-10-11,2025,10,1
462104,Dean Road,Dean Road,London,England,TW12 1BF,GB,51.42999475366136,-0.3746051096610472,ubitricity,Operational,1,CCS Type 2,2025-10-11,2025,10,1
462103,Ultra Fast Charge,Centura Brasov,Brasov,Brasov,Unknown,RO,45.68852893704917,25.62136172761564,Unknown Operator,Operational,1,CCS Type 2,2025-10-11,2025,10,1
462102,LCT Charge,Strada Zizinului 115,Brasov,Brasov,500403,RO,45.648857989514056,25.640429335460222,Unknown Operator,Operational,2,CCS Type 2Type 2 Tethered Connector,2025-10-11,2025,10,1
462101,Ultra Fast LCT Charge,DN1k,Brasov,Brasov,500483,RO,45.63837,25.65797,Unknown Operator,Operational,1,CCS Type 2,2025-10-11,2025,10,1
462100,Ultra Fast LCT Charge,"Sanpetru, Zaharia Barsan 6A",Brasov,Brasov,507190,RO,45.68852847031016,25.621068187806145,Unknown Operator,Operational,1,CCS Type 2,2025-10-11,2025,10,1
462098,Wawa Supercharger,1031 US 250,Staunton,VA,Unknown,US,38.13392236471498,-79.0443370772536,Tesla including non-tesla,Operational,1,NACS / Tesla Supercharger,2025-10-11,2025,10,1
462096,Paddle Espirit,c. Pirotecnia,madrid,Unknown,Unknown,ES,40.39622765626089,-3.5908804824382514,Eranovum ES,Operational,3,CCS Type 2CCS Type 2Type 2 Socket Only,2025-10-10,2025,10,1
462095,Repsol Pinto,Pinto,Pinto,Unknown,Unknown,ES,40.24637580885917,-3.6894885121541847,Repsol - Ibil ES,Operational,3,CCS Type 2CHAdeMOType 2 Tethered Connector,2025-10-10,2025,10,1
462094,K-Flex,Getafe,Getafe,Unknown,Unknown,ES,40.2774361790766,-3.701656595158397,Business Owner at Location,Operational,1,Type 2 Socket Only,2025-10-10,2025,10,1
462093,Ahorramas Getefe,Getafe,Getafe,Unknown,Unknown,ES,40.30744740319852,-3.730771931457639,EDP,Operational,1,Type 2 Socket Only,2025-10-10,2025,10,1
462092,Lidl Legans,Legans,Legans,Unknown,Unknown,ES,40.329115145515885,-3.742518222521312,Lidl,Operational,1,Type 2 Socket Only,2025-10-10,2025,10,1
462091,Laguna de Ptrola Corral-Rubio,Corral-Rubio,Corral-Rubio,Unknown,Unknown,ES,38.835980586214845,-1.4615291440852616,Unknown Operator,Operational,1,Type 2 Socket Only,2025-10-10,2025,10,1
462090,Campig Sierra Mara,Alfahuara,Alfahuara,Unknown,Unknown,ES,37.70912000177735,-2.236881861598817,Business Owner at Location,Operational,1,CEE 7/4 - Schuko - Type F,2025-10-10,2025,10,1
462089,Casa Eural Mi Abuela Mara,Agua de Enmedio,Agua de Enmedio,Unknown,Unknown,ES,37.07044316379394,-1.8639687810969008,Business Owner at Location,Operational,1,Type 2 Socket Only,2025-10-10,2025,10,1
462088,Macenas Resort,Mojcar,Mojcar,Unknown,Unknown,ES,37.08350487447015,-1.8523127003275024,Business Owner at Location,Operational,1,Type 2 Socket Only,2025-10-10,2025,10,1
462087,Lidl Garrucha,Garrucha,Garrucha,Unknown,Unknown,ES,37.174265566330575,-1.8255147771045583,Lidl,Operational,1,Type 2 Socket Only,2025-10-10,2025,10,1
462086,Camping Taiga,Palomares,Palomares,Unknown,Unknown,ES,37.2371440687796,-1.7994569154482178,Business Owner at Location,Operational,1,Type 2 Socket Only,2025-10-10,2025,10,1
462085,Casa Rural Aloe-Vera,Hurcal,Hurcal,Unknown,Unknown,ES,37.39935719635143,-1.9889193425663048,Business Owner at Location,Operational,1,CEE 7/4 - Schuko - Type F,2025-10-10,2025,10,1
462084,Consum Albox,Albox,Albox,Unknown,Unknown,ES,37.38647767756137,-2.1418282788899887,Business Owner at Location,Operational,1,Type 2 Socket Only,2025-10-10,2025,10,1
462083,Fontalmanzora S.L.,Albox,Albox,Unknown,Unknown,ES,37.3738391619638,-2.1285104685356373,Business Owner at Location,Operational,1,Type 2 Socket Only,2025-10-10,2025,10,1
462082,Piscinas Municipales Macael,Macael,Macael,Unknown,Unknown,ES,37.33825427607762,-2.3010617887382523,Electromaps,Operational,1,Type 2 Socket Only,2025-10-10,2025,10,1
462081,McDonnells SuperValu Santry,Lorcan Ave,Beaumont,Unknown,Dublin 9,IE,53.39179729466344,-6.235253281430573,ESB Ecars,Operational,1,CCS Type 2,2025-10-10,2025,10,1
462080,Area Caravanas Puerto Lumbreras,Puerto Lumbreras,Puerto Lumbreras,Unknown,Unknown,ES,37.57379071892963,-1.7972444732034774,Business Owner at Location,Operational,1,CEE 7/4 - Schuko - Type F,2025-10-10,2025,10,1
462079,Parking Huerto de la Rueda,Lorca,Lorca,Unknown,Unknown,ES,37.6738470792945,-1.689024034611066,Iberdrola  BP Pulse ES,Operational,1,Type 2 Socket Only,2025-10-10,2025,10,1
462078,CamperStop,Las Canales,Las Canales,Unknown,Unknown,ES,37.70470321441118,-1.763357521592411,Business Owner at Location,Operational,1,CEE 7/4 - Schuko - Type F,2025-10-10,2025,10,1
462077,Hotel Bajo El Cejo,El Berro,El Berro,Unknown,Unknown,ES,37.88916727428007,-1.4899773914924026,Business Owner at Location,Operational,1,Type 2 Socket Only,2025-10-10,2025,10,1
462076,Camping Sierra Espua,El Berro,El Berro,Unknown,Unknown,ES,37.888630521980176,-1.4930401513013294,Business Owner at Location,Operational,1,CEE 7/4 - Schuko - Type F,2025-10-10,2025,10,1
462075,Camping Los Madriles,Mazarrn,Mazarrn,Unknown,Unknown,ES,37.58067073618157,-1.195640843314436,Business Owner at Location,Operational,1,CEE 7/4 - Schuko - Type F,2025-10-10,2025,10,1
462074,Camping Las Torres,Mazarrn,Mazarrn,Unknown,Unknown,ES,37.58976654758342,-1.229529436527173,Business Owner at Location,Operational,1,CEE 7/4 - Schuko - Type F,2025-10-10,2025,10,1
462073,Parking de las Flores,Cartagena,Cartagena,Unknown,Unknown,ES,37.601907469548834,-0.9834839093056188,Business Owner at Location,Operational,1,Type 2 Socket Only,2025-10-10,2025,10,1
462072,Parking Disuasorio Mandarache,Cartagena,Cartagena,Unknown,Unknown,ES,37.61712247790632,-0.9852761899754796,Unknown Operator,Operational,1,Type 2 Socket Only,2025-10-10,2025,10,1
462071,Ayunt. Cartagena. La Palma,La Palma,Cartagena,Unknown,Unknown,ES,37.689443849418,-0.9625624964614872,Iberdrola  BP Pulse ES,Operational,1,Type 2 Socket Only,2025-10-10,2025,10,1
462070,Camping Mar Menor,San Javier,San Javier,Unknown,Unknown,ES,37.7697940794246,-0.8142627137430054,Business Owner at Location,Operational,1,CEE 7/4 - Schuko - Type F,2025-10-10,2025,10,1
462069,Camping Los Narejos,Los Narejos,Los Narejos,Unknown,Unknown,ES,37.76311035612882,-0.8307876078342815,Business Owner at Location,Operational,1,CEE 7/4 - Schuko - Type F,2025-10-10,2025,10,1
462068,Universidad de Murcia,San Javier,San Javier,Unknown,Unknown,ES,37.81072895523359,-0.8071291218806209,Unknown Operator,Operational,1,Type 2 Socket Only,2025-10-10,2025,10,1
462067,Cepsa Pilar de la Horadada,Pilar de la Horadada,Pilar de la Horadada,Unknown,Unknown,ES,37.871242619652165,-0.8005739482995295,CEPSA ES,Planned For Future Date,1,CCS Type 2,2025-10-10,2025,10,1
462066,Las Ramblas Golf,La Zenia,Torrevieja,Unknown,Unknown,ES,37.91707460878966,-0.7740051744257244,Business Owner at Location,Operational,1,Type 2 Socket Only,2025-10-10,2025,10,1
462065,Gasolinera Alcampo,La Zenia,Torrevieja,Unknown,Unknown,ES,37.929533496617,-0.7377650493646115,Iberdrola  BP Pulse ES,Operational,1,CCS Type 2,2025-10-10,2025,10,1
462064,Camping Palm-Mar,Torrevieja,Torrevieja,Unknown,Unknown,ES,38.07224232135363,-0.6525807632426677,Business Owner at Location,Operational,1,CEE 7/4 - Schuko - Type F,2025-10-10,2025,10,1
462063,Hiperber Cox,cox,Cox,Unknown,Unknown,ES,38.14607194199874,-0.8886473444545118,Iberdrola  BP Pulse ES,Operational,1,CCS Type 2,2025-10-10,2025,10,1
462062,Lidl Los Cipreses,Cobatillas,Cobatillas,Unknown,Unknown,ES,38.04855923612186,-1.0866090781504454,Lidl,Operational,1,Type 2 Socket Only,2025-10-10,2025,10,1
462061,Lineage Spain Transportation,Las Torres de Cotillaa,Las Torres de Cotillaa,Unknown,Unknown,ES,38.03104288773315,-1.235799585786367,Electromaps,Operational,1,CCS Type 2,2025-10-10,2025,10,1
462060,E.S. Mill Services,Los Torraos,Murcia,Unknown,Unknown,ES,38.09425804951815,-1.2877423173540592,Business Owner at Location,Not Operational,2,CCS Type 2Type 2 Socket Only,2025-10-10,2025,10,1
462059,Ayunt. Villanueva del Ro Segura,Villanueva del Ro Segura,Villanueva del Ro Segura,Unknown,Unknown,ES,38.13693709595762,-1.3239864541291126,Iberdrola  BP Pulse ES,Operational,1,Type 2 Socket Only,2025-10-10,2025,10,1
462058,Camping La Rafa,Bullas,Bullas,Unknown,Unknown,ES,38.03634778323468,-1.6702067479182006,Business Owner at Location,Operational,1,CEE 7/4 - Schuko - Type F,2025-10-10,2025,10,1
462057,Plenitude Casal Borsetti,Via Don Giovanni Lazzarotto 28,Ravenna,RA,Unknown,IT,44.551965,12.279677,Be Charge Italy,Operational,1,Type 2 Socket Only,2025-10-10,2025,10,1
462056,Complejo Rural La Atalaya,Cieza,Cieza,Unknown,Unknown,ES,38.2352280619925,-1.433097109395476,Business Owner at Location,Operational,1,CEE 7/4 - Schuko - Type F,2025-10-10,2025,10,1
462055,Camping Los Viveros. Calasparra,Calasparra,Calasparra,Unknown,Unknown,ES,38.25521494879027,-1.7184823107040756,Business Owner at Location,Operational,1,CEE 7/4 - Schuko - Type F,2025-10-10,2025,10,1
462054,Camping el Tranqilo,Pinoso,Pinoso,Unknown,Unknown,ES,38.40950155104309,-1.086875946669238,Business Owner at Location,Operational,1,CEE 7/4 - Schuko - Type F,2025-10-10,2025,10,1
462053,Parking Avda. Las Naciones,Alicante,Alicante,Unknown,Unknown,ES,38.3701935734054,-0.4204377926225788,Iberdrola  BP Pulse ES,Operational,1,Type 2 Socket Only,2025-10-10,2025,10,1
462052,Hiperber Elda,Elda,Elda,Unknown,Unknown,ES,38.47134923249757,-0.7961914240660235,Iberdrola  BP Pulse ES,Operational,1,CCS Type 2,2025-10-10,2025,10,1
462051,Electro Parking Meca,Ayora,Ayora,Unknown,Unknown,ES,39.0605564227196,-1.0533755049671072,Business Owner at Location,Operational,1,Type 2 Socket Only,2025-10-10,2025,10,1
462050,Trugo - Shell Damlama Kuzey OHT,Tarsus/Mersin,Unknown,Unknown,Unknown,TR,37.13668666314327,34.85539624727028,Trugo TR,Operational,1,CCS Type 2,2025-10-10,2025,10,1
462036,Monokon Elektrik - Hasan Kulu Orman rnleri,Karatay/Konya,Unknown,Unknown,Unknown,TR,37.85380310180997,32.66421205018992,Unknown Operator,Operational,1,CCS Type 2,2025-10-10,2025,10,1
462035,ZES - Karatay Termal Otel,21867 Karatay/Konya,Unknown,Unknown,Unknown,TR,37.73378868701423,33.0548995807485,ZES,Operational,1,Type 2 Socket Only,2025-10-10,2025,10,1
462034,Trugo - Karatay Termal Otel,21886 Karatay/Konya,Unknown,Unknown,Unknown,TR,37.734373399037125,33.05502505494269,Trugo TR,Operational,1,CCS Type 2,2025-10-10,2025,10,1
462031,Hotel Palacio Albacete,Albacete,Albacete,Unknown,Unknown,ES,39.01356454618895,-1.8696973641358452,Business Owner at Location,Operational,1,CEE 7/4 - Schuko - Type F,2025-10-10,2025,10,1
462028,Consum Albacete,Albacete,Albacete,Unknown,Unknown,ES,39.00066536836161,-1.856157936705472,Business Owner at Location,Operational,1,Type 2 Socket Only,2025-10-10,2025,10,1
462027,El Corte Ingls Albacete,Albacete,Albacete,Unknown,Unknown,ES,38.98253085635059,-1.8542152246355956,Business Owner at Location,Operational,1,Type 2 Tethered Connector,2025-10-10,2025,10,1
462024,Repsol Madrigueras,Madrigueras,Madrigueras,Unknown,Unknown,ES,39.23285302000579,-1.800199828129962,Repsol - Ibil ES,Planned For Future Date,3,CCS Type 2CHAdeMOType 2 Tethered Connector,2025-10-10,2025,10,1
462021,Hotel Spa Eli,Alcal del Jucar,Alcal del Jucar,Unknown,Unknown,ES,39.1976645764936,-1.4234353657491283,Business Owner at Location,Operational,1,Type 2 Socket Only,2025-10-10,2025,10,1
462019,Consum Casas de Ibez,Casas de Ibez,Casas de Ibez,Unknown,Unknown,ES,39.284729652148485,-1.4727170832918546,Iberdrola  BP Pulse ES,Operational,2,CCS Type 2CHAdeMO,2025-10-10,2025,10,1
462016,WAT Mobilite - Opet Dempet Demireller Petrol,Cumhuriyet Ky 102 ay/Afyonkarahisar,Unknown,Unknown,Unknown,TR,38.59044550000456,30.95283063469151,WAT Mobilite,Operational,1,CCS Type 2,2025-10-10,2025,10,1
462014,Ayunt. Enguidanos,Enguidanos,Enguidanos,Unknown,Unknown,ES,39.67387479004356,-1.608223626454219,Unknown Operator,Operational,1,Type 2 Socket Only,2025-10-10,2025,10,1
462013,Hotel NH Ciudad de Cuenca,Cuenca,Cuenca,Unknown,Unknown,ES,40.06197343300042,-2.132476135657498,Business Owner at Location,Operational,1,CEE 7/4 - Schuko - Type F,2025-10-10,2025,10,1
462012,Residencia AMAVIR EL Pinar,Cuenca,Cuenca,Unknown,Unknown,ES,40.08418505323544,-2.2108969769886926,Endesa,Operational,1,Type 2 Socket Only,2025-10-10,2025,10,1
462011,Hotel Portn de la Sierra,Orea,Orea,Unknown,Unknown,ES,40.555511738091695,-1.7221037595114694,Business Owner at Location,Operational,1,CEE 7/4 - Schuko - Type F,2025-10-10,2025,10,1
462010,Hotel Spa Ciudad de Teruel,Teruel,Teruel,Unknown,Unknown,ES,40.35763354359278,-1.1351992415645782,Business Owner at Location,Operational,1,CEE 7/4 - Schuko - Type F,2025-10-10,2025,10,1
462006,Repsol Daroca,Daroca,Daroca,Unknown,Unknown,ES,41.11721116224538,-1.406109503856328,Repsol - Ibil ES,Planned For Future Date,3,CCS Type 2CHAdeMOType 2 Tethered Connector,2025-10-10,2025,10,1
461998,Ayunt. Tabuenca,Tabuenca,Tabuenca,Unknown,Unknown,ES,41.69221168460956,-1.5443714287650891,Electromaps,Operational,1,Type 2 Socket Only,2025-10-10,2025,10,1
461997,Ayunt. Calatayud. Pabelln Polideportivo,Calatayud,Calatayud,Unknown,Unknown,ES,41.35240516707614,-1.6490725114178986,Iberdrola  BP Pulse ES,Operational,1,Type 2 Tethered Connector,2025-10-10,2025,10,1
461995,Hostal-Restaurante Villa de Brihuega,Brihuega,Brihuega,Unknown,Unknown,ES,40.76232060859303,-2.869375106542975,Business Owner at Location,Operational,1,Type 2 Socket Only,2025-10-10,2025,10,1
461994,Bar Renera Pit Stop,Renera,Renera,Unknown,Unknown,ES,40.49145082070379,-3.016019438981971,Business Owner at Location,Operational,1,Type 2 Socket Only,2025-10-10,2025,10,1
461993,Hospital Universitario de Guadalajara,Guadalajara,Guadalajara,Unknown,Unknown,ES,40.61971437579686,-3.1535966967717286,Business Owner at Location,Not Operational,1,Type 2 Socket Only,2025-10-10,2025,10,1
461992,Garraposa S.L.,Guadalajara,Guadalajara,Unknown,Unknown,ES,40.621651260244505,-3.1643262958579044,Business Owner at Location,Operational,1,Type 2 Tethered Connector,2025-10-10,2025,10,1
461991,Hotel Guadalajara  Conference Center Affiliated by Meli,Guadalajara,Guadalajara,Unknown,Unknown,ES,40.62107739262373,-3.1619594123485517,Business Owner at Location,Operational,1,Type 2 Tethered Connector,2025-10-10,2025,10,1
461990,Ballenoil Guadalajara,Guaalajara,Guadalajara,Unknown,Unknown,ES,40.63265952367101,-3.182714852406889,Ballenoil ES,Planned For Future Date,1,CCS Type 2,2025-10-10,2025,10,1
461989,Solfix,Azuqueca,Azuqueca,Unknown,Unknown,ES,40.600789524661934,-3.218353271911837,Business Owner at Location,Operational,1,Type 2 Socket Only,2025-10-10,2025,10,1
461988,Polig. Azuqueca,Azuqueca,Azuqueca,Unknown,Unknown,ES,40.55487788153292,-3.269792860020516,Business Owner at Location,Operational,1,Type 2 Socket Only,2025-10-10,2025,10,1
461987,Carrefour Va Complutense,Alcal,Alcal,Unknown,Unknown,ES,40.487259655437214,-3.3609332830166068,Business Owner at Location,Operational,1,Type 2 Socket Only,2025-10-10,2025,10,1
461986,Peugeot Alcal,Alcal,Alcal,Unknown,Unknown,ES,40.49047459718293,-3.3536988401853023,Business Owner at Location,Operational,1,Type 2 Socket Only,2025-10-10,2025,10,1
461985,Universidad de Alcal,Alcal,Alcal,Unknown,Unknown,ES,40.512659112542366,-3.350615407894906,Business Owner at Location,Operational,1,Type 2 Socket Only,2025-10-10,2025,10,1
461984,Prologics Logistics Alcal,Alcal,Alcal,Unknown,Unknown,ES,40.48489789265531,-3.41001205574014,Business Owner at Location,Operational,1,Type 2 Socket Only,2025-10-10,2025,10,1
461983,Cementerio Jardn de Alcal de Henares - Tanatorio,Alcal de Henares,Alcal de Henares,Unknown,Unknown,ES,40.46210880230723,-3.362888811969924,Unknown Operator,Operational,1,Type 2 Socket Only,2025-10-10,2025,10,1
461982,Talleres Jota Car,Velilla de San Antonio,Velilla de San Antonio,Unknown,Unknown,ES,40.356798529192616,-3.4756077973677293,Business Owner at Location,Operational,1,Type 2 Socket Only,2025-10-10,2025,10,1
461981,Ayunt. Rivas Vaciamadrid - Av. Aurelio lvarez,Av. Aurelio lvarez,Rivas Vaciamadrid,Unknown,Unknown,ES,40.343067607300526,-3.5191835330506365,Electromaps,Operational,2,Type 2 Socket OnlyCEE 7/4 - Schuko - Type F,2025-10-10,2025,10,1
461980,Ballenoil Barajas,Barajas,Barajas,Unknown,Unknown,ES,40.46919433333312,-3.590458820090589,Ballenoil ES,Planned For Future Date,1,CCS Type 2,2025-10-10,2025,10,1
461979,Transahaer,Poligono,Torrejn,Unknown,Unknown,ES,40.43951957620362,-3.49017095450688,Business Owner at Location,Operational,1,Type 2 Socket Only,2025-10-10,2025,10,1
461978,Polgono Coslada,Coslada,Coslada,Unknown,Unknown,ES,40.431961476046325,-3.551299554534012,Business Owner at Location,Operational,1,Type 2 Socket Only,2025-10-10,2025,10,1
461977,Polgono Coslada,Coslada,Coslada,Unknown,Unknown,ES,40.432900797386566,-3.550875151075161,Business Owner at Location,Operational,1,Type 2 Socket Only,2025-10-10,2025,10,1
461976,Hotel AC Coslada Aeropuero,Barajas,Barajas,Unknown,Unknown,ES,40.4450493466843,-3.540741840339137,Endesa,Operational,2,CCS Type 2Type 2 Socket Only,2025-10-10,2025,10,1
461975,Hotel Crowne Plaza Madrid Barajas,Barajas,Barajas,Unknown,Unknown,ES,40.44684214755412,-3.5422101278077207,Business Owner at Location,Operational,1,Type 2 Socket Only,2025-10-10,2025,10,1
461973,E.S. Area 117 Valcarce,Avda. Ronda Sur,Torrejn,Unknown,Unknown,ES,40.43982339533713,-3.488549755258191,Business Owner at Location,Operational,1,CCS Type 2,2025-10-10,2025,10,1
461972,K-in Punto Limpio,C. Verano,Torrejn,Unknown,Unknown,ES,40.44632426943954,-3.486864651781161,Ferrovial ES,Operational,1,Type 2 Socket Only,2025-10-10,2025,10,1
461971,Indra Vidrieros,C. Vidrieros,Torrejn,Unknown,Unknown,ES,40.44583300227157,-3.490103377794526,Wenea,Operational,1,Type 2 Socket Only,2025-10-10,2025,10,1
461970,Electra,Passeig dels Ferrocarrils Catalans 240,Cornell,Barcelona,08940,ES,41.353660132213605,2.0927161327708745,Electra,Not Operational,1,CCS Type 2,2025-10-09,2025,10,1
461967,C. C. Nueva Condomina  Tesla Dest. Chargers,Murcia,Murcia,Unknown,Unknown,ES,38.03841266581924,-1.1498934048742058,Business Owner at Location,Operational,1,Type 2 Tethered Connector,2025-10-09,2025,10,1
461966,C. C Nueva Condomina Tesla Destination chargers,Murcia,Murcia,Unknown,Unknown,ES,38.0382316243107,-1.149323663253199,Business Owner at Location,Operational,1,Type 2 Tethered Connector,2025-10-09,2025,10,1
461965,Ewiva Largo Alpone,Largo Alpone,San Bonifacio,VR,37047,IT,45.39325671664838,11.270398179164433,Ewiva IT,Operational,1,CCS Type 2,2025-10-09,2025,10,1
461964,Kennington Village Shopping Centre,Condon St,Bendigo,Victoria,3550,AU,-36.77522424001277,144.305953060746,Unknown Operator,Operational,1,CCS Type 2,2025-10-09,2025,10,1
461963,La Trobe University Bendigo,Car Park 1,Bendigo,Victoria,Unknown,AU,-36.778689772739966,144.30153718662336,Unknown Operator,Operational,1,CCS Type 2,2025-10-09,2025,10,1
461962,vkw Ladepark,Weidachstrae 6,Bregenz,Vorarlberg,6900,AT,47.48836038967238,9.740332044320894,Vlotte,Operational,2,CCS Type 2CCS Type 2,2025-10-08,2025,10,1
461961,Anew Hotel,"104 Main Rd, Hluhluwe, 3960",Unknown,Unknown,Unknown,ZA,-28.016992100022343,32.26692167021838,Unknown Operator,Operational,2,CCS Type 2Type 2 Socket Only,2025-10-08,2025,10,1
461960,Marassem Station 5,North 90,New Cairo,Unknown,Unknown,EG,30.05281763264847,31.535319112914493,TAQA Volt EG,Operational,1,CCS Type 2,2025-10-08,2025,10,1
461956,Torremolinos - Aparcamiento Los Palacios,Calle Ro Guadalope,Torremolinos,Malaga,Unknown,ES,36.62951686289526,-4.501271790249916,Unknown Operator,Not Operational,1,Type 2 Socket Only,2025-10-08,2025,10,1
461953,Torremolinos - Avenida de los Manantiales,Avenida de los Manantiales,Torremolinos,Malaga,Unknown,ES,36.625473232642335,-4.501124018679775,Unknown Operator,Not Operational,1,Type 2 Socket Only,2025-10-08,2025,10,1
461950,Lidl,Avenue des Vieux  Moulins 5,Annecy,Unknown,Unknown,FR,45.88832494901348,6.115381980711163,Lidl,Operational,2,CCS Type 2Type 2 Socket Only,2025-10-08,2025,10,1
461949,Convento Magdalena,Urb. Antequera Golf Finca de la Magdalena,Antequera,Malaga,Unknown,ES,37.00424122005414,-4.605002197823865,eTecnic,Not Operational,1,Type 2 Socket Only,2025-10-08,2025,10,1
461948,Antequera Golf,Urb. Antequera Golf,Antequera,Malaga,Unknown,ES,37.01718485386213,-4.599642040871458,Unknown Operator,Not Operational,1,Type 2 Socket Only,2025-10-08,2025,10,1
461947,Ferienhof Feinen,Brunnenstrae 6,Fleringen,Unknown,54597,DE,50.20695240481828,6.499634696054272,Unknown Operator,Operational,1,Type 2 Tethered Connector,2025-10-08,2025,10,1
461946,Abasthosur,Avenida Principal,Antequera,Malaga,Unknown,ES,37.02479588876013,-4.536345826304569,Unknown Operator,Operational,1,Type 2 Socket Only,2025-10-08,2025,10,1
461945,Mercaoleo,A-7281,Antequera,Malaga,Unknown,ES,37.03755151238484,-4.56227165078576,Unknown Operator,Operational,1,Type 2 Tethered Connector,2025-10-08,2025,10,1
461944,Dcoop,A-7281,Antequera,Malaga,Unknown,ES,37.03494893902929,-4.561811011565169,Unknown Operator,Operational,1,Type 2 Tethered Connector,2025-10-08,2025,10,1
461943,Centro Logstico Mercadona Antequera,Calle Navarra,Antequera,Malaga,Unknown,ES,37.038339012576046,-4.529447218773157,Unknown Operator,Operational,1,Type 2 Socket Only,2025-10-08,2025,10,1
461942,Shell Antequera,A-45,Antequera,Malaga,Unknown,ES,37.04496020385509,-4.512032859691317,Shell Recharge ES Cable Energia,Not Operational,1,CCS Type 2,2025-10-08,2025,10,1
461941,C. C. La Vernica,Calle Cuesta Talavera,Antequera,Malaga,Unknown,ES,37.026210889391294,-4.573419650439064,Endesa,Planned For Future Date,2,Type 2 Socket OnlyCCS Type 2,2025-10-08,2025,10,1
461940,Aadete Group,Calle Torre del Hacho,Antequera,Malaga,Unknown,ES,37.02908464696378,-4.533117498300385,Unknown Operator,Operational,1,Type 2 Socket Only,2025-10-08,2025,10,1
461939,Renault Antequera,Calle Residencia de la vega,Antequera,Malaga,Unknown,ES,37.026554488313664,-4.538718369936305,Unknown Operator,Operational,1,Type 2 Socket Only,2025-10-08,2025,10,1
461938,Renault Antequera,Calle Residencia de la vega,Antequera,Malaga,Unknown,ES,37.02687288886118,-4.5385203648770585,Unknown Operator,Partly Operational (Mixed),1,Type 2 Socket Only,2025-10-08,2025,10,1
461937,Shopping Gallo,"R. 67-A, St. Central",Goinia,Gois,74055045,BR,-16.66168,-49.255057,Yellotmob Brasil,Operational,2,Type 2 Tethered Connector Type 2 Tethered Connector,2025-10-07,2025,10,1
461936,Catalo Shopping,"R. Jocelim, R. Juscelino Gomes Pres, Nossa Senhora de Ftima",Catalo,Gois,75709140,BR,-18.172543,-47.927671,Yellotmob Brasil,Operational,2,CCS Type 2Type 2 Tethered Connector,2025-10-07,2025,10,1
461935,Maria Fumaa,"R. So Genaro, 1000, Solar de Caldas",Caldas Novas,Gois,75690000,BR,-17.726769,-48.62768,Yellotmob Brasil,Operational,2,CCS Type 2Type 2 Tethered Connector,2025-10-07,2025,10,1
461934,Lagoa Eco Towers,"Avenida Princesa Isabel, Setor Lagoa Quente",Caldas Novas,Gois,75690000,BR,-17.694226,-48.587424,Yellotmob Brasil,Operational,1,Type 2 Tethered Connector,2025-10-07,2025,10,1
461933,Supermercado NSA,"R. R 17, 140, Setor Oeste",Goinia,Gois,74125170,BR,-16.6855236,-49.2747571,Yellotmob Brasil,Operational,1,Type 2 Tethered Connector,2025-10-07,2025,10,1
461932,Arena Botanic,"R. 90, 265, St. Sul",Goinia,Gois,74093020,BR,-16.6930259,-49.2522574,Yellotmob Brasil,Operational,1,Type 2 Tethered Connector,2025-10-07,2025,10,1
461929,Life Box Lago Sul,"SCES Trecho 2 Beira Lago, St. de Clubes Esportivos",Braslia,Distrito Federal,70200001,BR,-15.8194607,-47.8353896,Yellotmob Brasil,Operational,1,CCS Type 2,2025-10-07,2025,10,1
461926,Trugo - Shell mitky,ayyolu ankaya/Ankara,Unknown,Unknown,Unknown,TR,39.89463673507231,32.70266617307641,Trugo TR,Operational,1,CCS Type 2,2025-10-07,2025,10,1
461924,Eletroposto Marcelo Soyer Fastcharger,"Av. 85, 1049, Setor Sul",Goinia,Gois,74080010,BR,-16.6909376,-49.2617464,Yellotmob Brasil,Operational,2,Type 2 Tethered Connector CCS Type 2,2025-10-07,2025,10,1
461921,e-POwer - Petrol Ofisi mitky,Erler 344 Etimesgut/Ankara,Unknown,Unknown,Unknown,TR,39.90549631950111,32.70354858850021,ePower,Operational,1,Type 2 Socket Only,2025-10-07,2025,10,1
461916,Portal Sul Shopping,"Av. gua Limpa, GO 040, Jardins Lisboa",Goinia,Gois,74354700,BR,-16.771062,-49.351919,Yellotmob Brasil,Operational,2,Type 2 Tethered Connector Type 2 Tethered Connector,2025-10-07,2025,10,1
461912,Interdata - Ekrem Usta Restoran,Erler 22 Etimesgut/Ankara,Unknown,Unknown,Unknown,TR,39.895782618168965,32.67946845114818,Unknown Operator,Operational,2,Type 2 Socket OnlyType 2 Socket Only,2025-10-07,2025,10,1
461906,Passeio das guas Shopping,"Av. Perimetral Norte, 8303",Goinia,Gois,74573260,BR,-16.629482,-49.278707,Yellotmob Brasil,Operational,2,Type 2 Tethered Connector Type 2 Tethered Connector,2025-10-07,2025,10,1
461903,ZES - Elmar Tower,Konutkent 3028 8/A ankaya/Ankara,Unknown,Unknown,Unknown,TR,39.87700635647195,32.65306562138642,ZES,Operational,1,Type 2 Socket Only,2025-10-07,2025,10,1
461901,Posto Alpha YellotMob,"Res. Alphaville Flamboyant, 20",Goinia,Gois,74884-543,BR,-16.7145363,-49.20163527,Yellotmob Brasil,Operational,2,CCS Type 2Type 2 Tethered Connector,2025-10-07,2025,10,1
461892,Graal Ourinhos,Rodovia Transbrasiliana BR 153 KM345,Ourinhos,So Paulo,19904-565,BR,-22.980560848885105,-49.902910758552025,Unknown Operator,Operational,2,CCS Type 2CCS Type 2,2025-10-07,2025,10,1
461879,Trugo - Shell Temelli,Hrriyet Sincan/Ankara,Unknown,Unknown,Unknown,TR,39.72186114926612,32.33935460437067,Trugo TR,Operational,1,CCS Type 2,2025-10-07,2025,10,1
461849,Plaza Park West,Park West Rd,Unknown,Unknown,Dublin 12,IE,53.33182946684059,-6.372746042947938,InstaVolt Ltd,Planned For Future Date,2,CCS Type 2CHAdeMO,2025-10-07,2025,10,1
461841,Le Dme de Mutzig,"Rue du Mattfeld, 67190 Mutzig",Mutzig,Alsace,67190,FR,48.53621501504051,7.45056760719126,Unknown Operator,Operational,1,Unknown,2025-10-06,2025,10,1
461840,rion Business Trreo,"Av. Portugal, 1148 - St. Marista",Goinia,Gois,74150-030,BR,-16.69723099984317,-49.26969375960925,Yellotmob Brasil,Operational,2,Type 2 Tethered Connector Type 2 Tethered Connector,2025-10-06,2025,10,1
461839,Ecosol,"Av. Brasil Sul, 560 - Sala 3 - Vila Jussara,",Anpolis,Gois,75123-115,BR,-16.334583060684736,-48.95214120988868,Yellotmob Brasil,Operational,2,CCS Type 2Type 2 Tethered Connector,2025-10-06,2025,10,1
461838,Drogaria Aldeia Guanabara,"Av. Vera Cruz, 874 - Jardim Guanabara",Goinia,Gois,74675-830,BR,-16.623473803050828,-49.21916758590709,Yellotmob Brasil,Operational,1,Type 2 Tethered Connector,2025-10-06,2025,10,1
461837,Shopping Estao,"Av. Gois, 2151 - Centro",Goinia,Gois, 74063-300,BR,-16.661547898991117,-49.26159133202009,Yellotmob Brasil,Operational,2,CCS Type 2Type 2 Tethered Connector,2025-10-06,2025,10,1
461834,Calle San Jos,Calle San Jos,San Jos de Ocoa,San Jos de Ocoa,93000,DO,18.545798463229943,-70.51127611313956,Unknown Operator,Operational,1,CCS Type 1,2025-10-06,2025,10,1
461833,Emotion AdS Muggiano Ovest,A50 km 12 verso sud,Milano,MI,Unknown,IT,45.444588,9.073487,Unknown Operator,Operational,3,CCS Type 2CHAdeMOType 2 Tethered Connector,2025-10-06,2025,10,1
461830,Hotel Veracruz Valdepeas,Valdepeas,Valdepeas,Unknown,Unknown,ES,38.76232885857991,-3.383692718452494,Business Owner at Location,Operational,1,CEE 7/4 - Schuko - Type F,2025-10-06,2025,10,1
461829,Supeco Valdepeas,Valdepeas,Valdepeas,Unknown,Unknown,ES,38.76870077843131,-3.394688409785431,Business Owner at Location,Operational,1,Type 2 Tethered Connector,2025-10-06,2025,10,1
461827,Parador de Manzanares,Manzanares,Manzanares,Unknown,Unknown,ES,38.9855736319445,-3.381447234362099,ChargeGuru,Operational,2,CCS Type 2Type 2 Tethered Connector,2025-10-06,2025,10,1
461826,Casa Rural La Ta Iola,Puerto Lpice,Puerto Lpice,Unknown,Unknown,ES,39.32454591950227,-3.4806639510553623,Business Owner at Location,Operational,1,Type 2 Socket Only,2025-10-06,2025,10,1
461825,Rest. Puerta de la Mancha Acciona,Tembleque,Tembleque,Unknown,Unknown,ES,39.69538186606013,-3.500198373772946,ACCIONA - Cargacoches,Planned For Future Date,1,CCS Type 2,2025-10-06,2025,10,1
461824,Ayunt. Alcazar de San Juan. Plaza de Toros,Alcazar de San Juan,Alcazar de San Juan,Unknown,Unknown,ES,39.38873417669416,-3.2179508850703087,Unknown Operator,Not Operational,2,Type 2 Socket OnlyCEE 7/4 - Schuko - Type F,2025-10-06,2025,10,1
461823,Consum Pedro Muoz,Pedro Muoz,Pedro Muoz,Unknown,Unknown,ES,39.39725488829751,-2.9430475431560126,Endesa,Operational,1,Type 2 Socket Only,2025-10-06,2025,10,1
461822,BP Villarrobledo,Villarrobledo,Villarrobledo,Unknown,Unknown,ES,39.27712501202549,-2.591613835637645,Iberdrola  BP Pulse ES,Operational,2,CCS Type 2CHAdeMO,2025-10-06,2025,10,1
461821,Cromovil Villarrobledo,Villarrobledo,Villarrobledo,Unknown,Unknown,ES,39.27798127712455,-2.5903947599163075,Business Owner at Location,Operational,1,Type 2 Socket Only,2025-10-06,2025,10,1
461820,Jardines de la Estacin,Tomelloso,Tomelloso,Unknown,Unknown,ES,39.14792155774671,-3.028386459921421,Unknown Operator,Operational,1,Type 2 Socket Only,2025-10-06,2025,10,1
461819,E.S. Inepealsa Munera,Munera,Munera,Unknown,Unknown,ES,39.04392909778721,-2.484900353985722,Endesa,Operational,1,CCS Type 2,2025-10-06,2025,10,1
461818,Repsol Huscar,Huscar,Huscar,Unknown,Unknown,ES,37.81075272695927,-2.5328515607792497,Repsol - Ibil ES,Operational,3,CCS Type 2CHAdeMOType 2 Tethered Connector,2025-10-06,2025,10,1
461817,Repsol Almuradiel,Almuradiel,Almuradiel,Unknown,Unknown,ES,38.50669950729633,-3.4966198244057978,Repsol - Ibil ES,Operational,3,CCS Type 2CHAdeMOType 2 Tethered Connector,2025-10-06,2025,10,1
461816,U Venues Basement Parking,Ring RD,New Cairo,Unknown,Unknown,EG,30.007681312452107,31.402706395246184,Elsewedy Plug EG,Operational,1,Type 2 Socket Only,2025-10-06,2025,10,1
461815,Chillout Ring RD,Ring RD,Katameya,Unknown,Unknown,EG,30.01496923642783,31.40006656384253,Elsewedy Plug EG,Operational,2,CCS Type 2CHAdeMO,2025-10-06,2025,10,1
461814,Common People Brewing,9 Dudgeons Lane,Bangalow,NSW,2479,AU,-28.696494360025127,153.50949385748115,Unknown Operator,Operational,1,Type 2 Tethered Connector,2025-10-06,2025,10,1
461813,Culvers,620 W Kemp Street,Rhinelander,WI,54501,US,45.63291495151088,-89.43208425423694,ChargePoint,Operational,2,CCS Type 1NACS / Tesla Supercharger,2025-10-05,2025,10,1
461810,Comsum Villanueva de los Infantes,Villanueva de los Infantes,Villanueva de los Infantes,Unknown,Unknown,ES,38.73138777908324,-3.0092745789249875,Business Owner at Location,Operational,1,Type 2 Socket Only,2025-10-05,2025,10,1
461807,Innogy Public Charging StationAC.,Masarykova.,Chrudim.,Pardubick kraj.,Unknown,CZ,49.952638422161925,15.78879989044674,Innogy SE RWE eMobility,Operational,1,Type 2 Socket Only,2025-10-05,2025,10,1
461806,IPlanet IP,Via Faentina 213/B,Ravenna,RA,Unknown,IT,44.419071,12.14152,Unknown Operator,Operational,1,CCS Type 2,2025-10-05,2025,10,1
461803,Backstage,Rue des Tuillires,Gland,Unknown,Unknown,CH,46.42241735596573,6.25826883584773,Electra,Operational,2,CCS Type 2CCS Type 2,2025-10-05,2025,10,1
461802,Expo Bern,Tschpptstrasse,Bern,Unknown,Unknown,CH,46.959054925,7.46920806,Electra,Operational,1,CCS Type 2,2025-10-05,2025,10,1
461797,ELETROPOSTOGP,"Rua Omar Moreira Lbio, 220 Sao Cristovao",Lajeado,Rio Grande do Sul,95913-166,BR,-29.45025,-51.96403,Unknown Operator,Operational,1,CCS Type 2,2025-10-05,2025,10,1
461781,Gentari G orange Gua Musang,Jalan Cengal,Gua Musang,Kelantan,17300,MY,4.891970805776708,101.97538311166376,Unknown Operator,Operational,1,CCS Type 2,2025-10-04,2025,10,1
461780,E.On Public Charging StationACDC.,Penny Markets parking lot.,Nchod.,Krlovhradeck kraj.,Unknown,CZ,50.40848785962089,16.158288741406068,E.ON CZ,Operational,3,Type 2 Tethered Connector CHAdeMOCCS Type 2,2025-10-04,2025,10,1
461774,E.On Public Charter Charging Stationnon-standard pricingACDC.,In front of the entranc of a company chartering the station with E.On.,Mohelnice.,Olomouck krajaka Han.,Unknown,CZ,49.773768172344205,16.933237249366584,E.ON CZ,Operational,3,Type 2 Tethered Connector CHAdeMOCCS Type 2,2025-10-04,2025,10,1
461771,IPlanet AdS Cascina Gobba Ovest,A51 km 20 verso Rogoredo,Milano,MI,Unknown,IT,45.506786,9.259519,Unknown Operator,Operational,1,CCS Type 2,2025-10-04,2025,10,1
461766,Innogy Public Charging StationAC.,Policlinics parking lot.,Svitavy.,Pardubick kraj.,568 02.,CZ,49.75358461838712,16.468331292023322,Innogy SE RWE eMobility,Partly Operational (Mixed),2,Type 2 Socket OnlyType 2 Socket Only,2025-10-04,2025,10,1
461764,Duferco,Via Piero Jahier 2,Bologna,BO,Unknown,IT,44.519651,11.267058,Duferco Energie,Operational,1,CCS Type 2,2025-10-04,2025,10,1
461761,Iberdrola,Carrer De Frana,Vielha,Lleida,25530,ES,42.711089678970666,0.7975781528250536,Iberdrola  BP Pulse ES,Operational,2,CCS Type 2Type 2 Tethered Connector,2025-10-04,2025,10,1
461760,Tesla Supercharger Pcs,"Pcs, Hungary 7634",Pcs,Baranya,7634,HU,46.06431783089815,18.18236823197185,Tesla including non-tesla,Operational,1,CCS Type 2,2025-10-04,2025,10,1
461758,Bradville Square Shopping Center,3615 Bradshaw Road,Sacramento,CA,95827,US,38.55659687703363,-121.33426303370668,eVgo Network,Operational,1,CCS Type 1,2025-10-04,2025,10,1
461757,Dutch Bros Coffee,8732 La Riviera Drive,Sacramento,CA,95826,US,38.563177397774126,-121.38113376025107,eVgo Network,Operational,1,CCS Type 1,2025-10-04,2025,10,1
461756,"Laguna Blvd, Elk Grove, CA",7216 Laguna Blvd,Elk Grove,CA,95758,US,38.42294934902401,-121.41889586907706,eVgo Network,Operational,1,CCS Type 1,2025-10-04,2025,10,1
461754,MFG 144 Stoke Newington High Street,144 - 150 Stoke Newington High Street,Unknown,Unknown,N16 7XA,GB,51.5554481279988,-0.074269636560416,MFG EV Power,Operational,2,CHAdeMOCCS Type 2,2025-10-03,2025,10,1
461753,Calle San Jos,Calle San Jos,San Jos de Ocoa,San Jos de Ocoa,93000,DO,18.5458112444166,-70.51119193218994,Unknown Operator,Operational,0,Unknown,2025-10-03,2025,10,1
461752,Taverna La Finca,Barrio San Juan 6,Puente San Miguel,Cantabria,39530,ES,43.363569381384224,-4.097198810262739,Qwello,Operational,1,Type 2 Socket Only,2025-10-03,2025,10,1
461750,Speedy Q,37750 26 Mile Rd,New Baltimore,MI,48047,US,42.72034242041755,-82.73231596928287,Red E Charge,Operational,1,CCS Type 1,2025-10-03,2025,10,1
461744,Sunset Pointe,1240 Sunset Blvd,Rocklin,CA,95765,US,38.811244502019065,-121.2852391331944,eVgo Network,Operational,1,CCS Type 1,2025-10-03,2025,10,1
461741,Lo Jurado Zunder,Lo Jurado,Zunder,Unknown,Unknown,ES,37.822909458406286,-1.0974606138973968,Zunder,Operational,1,CCS Type 2,2025-10-02,2025,10,1
461740,Parking Subterraneo C. C.  La Nucia,La Nucia,La Nucia,Unknown,Unknown,ES,38.603050158982,-0.127641905515162,Business Owner at Location,Operational,1,Type 2 Socket Only,2025-10-02,2025,10,1
461739,JYSK La Nucia,La Nucia,La Nucia,Unknown,Unknown,ES,38.6026482109146,-0.1279962691712626,Business Owner at Location,Operational,1,Type 2 Socket Only,2025-10-02,2025,10,1
461737,ADNOC Charger,Al Hadwaniyyah,Al Hadwaniyyah,Unknown,Unknown,AE,24.07164296814156,53.10232537301352,Ev2Go RU,Operational,1,CCS Type 2,2025-10-02,2025,10,1
461736,Adnoc Charger,Al Hadwaniyyah,Al Hadwaniyyah,Abu Dhabi,Unknown,AE,24.07146205405729,53.10205058315682,Unknown Operator,Operational,1,CCS Type 2,2025-10-02,2025,10,1
461735,Tesla Supercharger Keysborough,Springvale Road,Keysborough,VIC,Unknown,AU,-37.99265638766672,145.14482179447077,Tesla including non-tesla,Operational,1,CCS Type 2,2025-10-02,2025,10,1
461734,Tesla Supercharger Nhill,Nelson Street,Nhill,VIC,Unknown,AU,-36.332722244434336,141.651505985629,Tesla including non-tesla,Operational,1,CCS Type 2,2025-10-02,2025,10,1
461733,Walmart,131 Paul Carr Dr,Checotah,OK,74426,US,35.47023611066331,-95.53572033056464,Unknown Operator,Operational,2,CCS Type 2NACS / Tesla Supercharger,2025-10-02,2025,10,1
461732,Shell Recharge Corio,Princes Highway,Norlane,VIC,Unknown,AU,-38.07542415453054,144.37025628239667,Ampol AmpCharge,Operational,1,CCS Type 2,2025-10-02,2025,10,1
461731,Ampcharge Waurn Ponds,Colac Road,Waurn Ponds,VIC,Unknown,AU,-38.19919196237264,144.31698737047805,Ampol AmpCharge,Operational,1,CCS Type 2,2025-10-02,2025,10,1
461730,Ampcharge Karingal Hub,Karingal Drive,Karingal,VIC,Unknown,AU,-38.15191969262739,145.16596676548875,Ampol AmpCharge,Operational,1,CCS Type 2,2025-10-02,2025,10,1
461729,Bunnings Springvale,Princes Highway,Springvale,VIC,Unknown,AU,-37.931885715813294,145.1527741495313,Exploren,Operational,1,CCS Type 2,2025-10-02,2025,10,1
461728,Evie Doncaster East,Blackburn Road,Doncaster East,VIC,Unknown,AU,-37.7617875851612,145.16840228271178,Evie,Operational,1,CCS Type 2,2025-10-02,2025,10,1
461715,BP Express Stop,2500 Airport Rd,Jackson,MI,49202,US,42.267724415234994,-84.45320382122895,Red E Charge,Operational,2,CCS Type 1NACS / Tesla Supercharger,2025-10-02,2025,10,1
461714,E.S. Carrefour Crdoba,Crdoba,Crdoba,Unknown,Unknown,ES,37.89381154799264,-4.749723736147303,Iberdrola  BP Pulse ES,Operational,1,CCS Type 2,2025-10-01,2025,10,1
461713,Ayunt. Palma del Ro. Colegio Ferrobus,Palma del Ro,Palma del Ro,Unknown,Unknown,ES,37.69815764728327,-5.275893606836348,Unknown Operator,Operational,1,Type 2 Socket Only,2025-10-01,2025,10,1
461712,North Shopping Barretos,"Conselheiro Antnio Prado, 1400 - Pedro Cavalini, Barretos - SP, 14784-200, Brazil",Barretos,So Paulo,14784-200,BR,-20.575007587751852,-48.55849776749437,Unknown Operator,Operational,1,CCS Type 2,2025-10-01,2025,10,1
461711,Rastplatz Hexentobel,A1,Wngi,Unknown,Unknown,CH,47.488808413809096,8.955707919161341,MOVE CH,Operational,2,CCS Type 2CHAdeMO,2025-10-01,2025,10,1
461710,Ford Tysa Lucena,lucena,Lucena,Unknown,Unknown,ES,37.40389728325779,-4.49767821572803,Business Owner at Location,Operational,1,Type 2 Socket Only,2025-10-01,2025,10,1
461709,Calonge Zunder,Calonge,Calonge,Unknown,Unknown,ES,41.85345538048145,3.081420441002251,Zunder,Operational,1,CCS Type 2,2025-10-01,2025,10,1
461708,Polideportivo Baza,Baza,Baza,Unknown,Unknown,ES,37.49723285223075,-2.761570617045209,Unknown Operator,Not Operational,1,Type 2 Socket Only,2025-10-01,2025,10,1
461707,Supermercado Dia Abla,Abla,Abla,Unknown,Unknown,ES,37.14458686484177,-2.7770084670485176,Business Owner at Location,Operational,1,Type 2 Socket Only,2025-10-01,2025,10,1
461706,Aldi Guadix,Guadix,Guadix,Unknown,Unknown,ES,37.306336095044216,-3.1444968386267647,ALDI SD DE,Operational,1,Type 2 Socket Only,2025-10-01,2025,10,1
461705,Hotel Escudo de Granada,Puerto Lope,Puerto Lope,Unknown,Unknown,ES,37.330747511954016,-3.831939822380264,Business Owner at Location,Operational,1,Type 2 Socket Only,2025-10-01,2025,10,1
461704,Casas Rurales Mocln,Urbanizacion Montesol,Granada,Unknown,Unknown,ES,37.354370824569,-3.842439605203822,Business Owner at Location,Operational,1,CEE 7/4 - Schuko - Type F,2025-10-01,2025,10,1
461703,Parking Campo de Futbol,Priego de Crdoba,Priego de Crdoba,Unknown,Unknown,ES,37.44292537159954,-4.208257420130167,Unknown Operator,Operational,1,Type 2 Socket Only,2025-10-01,2025,10,1
461702,Parking Haza Luna,Priego de Crdoba,Priego de Crdoba,Unknown,Unknown,ES,37.43749776518175,-4.20169331186321,Business Owner at Location,Operational,1,Type 2 Socket Only,2025-10-01,2025,10,1
461701,Aparcamiento Municipal Baeza,Baeza,Baeza,Unknown,Unknown,ES,37.99537319804941,-3.463456201472127,Unknown Operator,Not Operational,1,Type 2 Socket Only,2025-10-01,2025,10,1
461700,Rastplatz Stegen,A1,Stegen,Unknown,Unknown,CH,47.53050229295647,8.852138422075654,MOVE CH,Operational,2,CCS Type 2CCS Type 2,2025-10-01,2025,10,1
461699,Parking La Ribera,Crdoba,Crdoba,Unknown,Unknown,ES,37.87997115954245,-4.774966592090777,Business Owner at Location,Operational,1,Type 2 Socket Only,2025-10-01,2025,10,1
461698,Parking COPART,Avda. Brillante,Crdoba,Unknown,Unknown,ES,37.9109071457316,-4.794527832364565,Business Owner at Location,Operational,1,Type 2 Socket Only,2025-10-01,2025,10,1
461697,Obramat Crdoba,Crdoba,Crdoba,Unknown,Unknown,ES,37.84686634205202,-4.791652739440224,Business Owner at Location,Operational,1,Type 2 Socket Only,2025-10-01,2025,10,1
461696,RECINTO LOGSTICO,Crdoba,Crdoba,Unknown,Unknown,ES,37.87708361905607,-4.83217232232289,Electromaps,Operational,1,Type 2 Socket Only,2025-10-01,2025,10,1
461695,Red Logstica de Andaluca,Crdoba,Crdoba,Unknown,Unknown,ES,37.87763308340601,-4.832889003673586,Electromaps,Operational,3,CCS Type 2CHAdeMOType 2 Tethered Connector,2025-10-01,2025,10,1
461694,FGA Automocin,La Carlota,La Carlota,Unknown,Unknown,ES,37.66631464995933,-4.939288616203498,Business Owner at Location,Operational,1,Type 1 J1772,2025-10-01,2025,10,1
461693,Ballenoil La Carlota,La Carlota,La Carlota,Unknown,Unknown,ES,37.67566281319516,-4.925275445556167,Ballenoil ES,Planned For Future Date,1,CCS Type 2,2025-10-01,2025,10,1
461691,Repsol  Las Pedrizas II,Casabermeja,Casabermeja,Unknown,Unknown,ES,36.91655083966173,-4.439281654043953,Repsol - Ibil ES,Operational,3,CCS Type 2CHAdeMOType 2 Tethered Connector,2025-09-30,2025,9,1
461690,BP Rincn de la Victoria,Rincn de la Victoria,Rincn de la Victoria,Unknown,Unknown,ES,36.7233117164991,-4.296903796091897,Iberdrola  BP Pulse ES,Operational,1,CCS Type 2,2025-09-30,2025,9,1
461689,E.S. Campoejido,El Ejido,El Ejido,Unknown,Unknown,ES,36.76859347482957,-2.831857754596172,Business Owner at Location,Operational,1,CCS Type 2,2025-09-30,2025,9,1
461688,Parking Playa del Balneario Adra,Adra,Adra,Unknown,Unknown,ES,36.745704872142994,-3.014872310974169,Unknown Operator,Operational,1,Type 2 Socket Only,2025-09-30,2025,9,1
461687,Decathlon Motril,Motril,Motril,Unknown,Unknown,ES,36.74160054100487,-3.5321024788884188,Business Owner at Location,Operational,1,CEE 7/4 - Schuko - Type F,2025-09-30,2025,9,1
461686,Parking Puerto Motril,Motril,Motril,Unknown,Unknown,ES,36.72276542859605,-3.519378355865797,Business Owner at Location,Operational,1,Type 2 Socket Only,2025-09-30,2025,9,1
461685,Carrefour Express Cadiar,Cadiar,Cadiar,Unknown,Unknown,ES,36.94627749593306,-3.1784456307021856,Business Owner at Location,Operational,1,Type 2 Tethered Connector,2025-09-30,2025,9,1
461684,Ayunt. Ogijares,Ogijares,Ogijares,Unknown,Unknown,ES,37.11838020905891,-3.604029854705118,Electromaps,Operational,1,Type 2 Socket Only,2025-09-30,2025,9,1
461683,Hotel Abades Nevada Palace,Granada,Granada,Unknown,Unknown,ES,37.1520607955018,-3.5916970635845478,Business Owner at Location,Operational,2,CEE 7/4 - Schuko - Type FCEE 5 Pin,2025-09-30,2025,9,1
461682,Hotel Ibis Granada,Granada,Granada,Unknown,Unknown,ES,37.15518886878954,-3.611880506814032,Business Owner at Location,Operational,1,Type 2 Tethered Connector,2025-09-30,2025,9,1
461681,Carrefour Granada,Granada,Granada,Unknown,Unknown,ES,37.15533871083869,-3.6098089398556112,Business Owner at Location,Operational,2,CCS Type 2CHAdeMO,2025-09-30,2025,9,1
461680,Garaje Trex S.L,Granada,Granada,Unknown,Unknown,ES,37.17314405237994,-3.6001084971362616,Business Owner at Location,Operational,1,CCS Type 2,2025-09-30,2025,9,1
461679,Hola Market Las Amricas,Autopista Las Amricas,Unknown,Unknown,Unknown,DO,18.455757297101243,-69.70878232771832,Evergo,Operational,1,Unknown,2025-09-30,2025,9,1
461678,ALDI CHANA,Chana,Granada,Unknown,Unknown,ES,37.18743560070936,-3.6236335019781336,ALDI SD DE,Not Operational,1,Type 2 Socket Only,2025-09-30,2025,9,1
461677,AUTO BAEZ,Santa Fe,Granada,Unknown,Unknown,ES,37.19279082985239,-3.719431019964759,Business Owner at Location,Operational,1,Type 2 Socket Only,2025-09-30,2025,9,1
461676,Hospital Alta Resolucin Loja,Loja,Loja,Unknown,Unknown,ES,37.17081753483768,-4.153682507951544,Iberdrola  BP Pulse ES,Operational,1,Type 2 Tethered Connector,2025-09-30,2025,9,1
461675,Aceites Tapia S.L.,Villanueva de Tapia,Villanueva de Tapia,Unknown,Unknown,ES,37.187521374274894,-4.339361507710464,Business Owner at Location,Operational,1,CEE 7/4 - Schuko - Type F,2025-09-30,2025,9,1
461674,Azzurra Sahl Hasheesh,Hillcrest Ct,Sahl Hasheesh,Unknown,Unknown,EG,27.053008053353537,33.897027734191454,Infinity EV Egypt,Operational,1,Type 2 Socket Only,2025-09-30,2025,9,1
461672,Electriease Via Bologna,Via Bologna snc,Ferrara,Unknown,Unknown,IT,44.815519576171766,11.597250532563748,Unknown Operator,Operational,1,CCS Type 2,2025-09-30,2025,9,1
461671,Electra Ipercoop il castello,Via Giusti 4,Ferrara,Unknown,Unknown,IT,44.816745151132096,11.604429808006673,Electra,Operational,3,CCS Type 2CCS Type 2Type 2 Tethered Connector,2025-09-30,2025,9,1
461670,Hotel Campestre Lagos De Venecia,Calle 37 Via Guacas,Santa Rosa De Cabal,Risaralda,661020,CO,4.889591509979312,-75.62269716386982,Unknown Operator,Operational,1,NEMA 6-15,2025-09-29,2025,9,1
461669,Parking Bans,Marbella,Marbella,Unknown,Unknown,ES,36.486819077624375,-4.956025580625237,Business Owner at Location,Operational,1,Type 2 Socket Only,2025-09-29,2025,9,1
461668,Parking B51,Marbella,Marbella,Unknown,Unknown,ES,36.48593216679461,-4.955800988351825,Business Owner at Location,Operational,1,Type 2 Socket Only,2025-09-29,2025,9,1
461667,Aldi Marbella,Marbella,Marbella,Unknown,Unknown,ES,36.49400332664189,-4.992598989173189,ALDI SD DE,Operational,1,Type 2 Socket Only,2025-09-29,2025,9,1
461666,Free To X AdS Villoresi Ovest,A8 km 35 verso Milano,Lainate,MI,Unknown,IT,45.55878,9.0397,Free To X,Operational,4,CCS Type 2CCS Type 2CCS Type 2Type 2 Tethered Connector,2025-09-29,2025,9,1
461665,Carrefour Los Barrios,Los Barrios,Algeciras,Unknown,Unknown,ES,36.18151752441557,-5.441093420464085,Business Owner at Location,Operational,3,CCS Type 2CHAdeMOType 2 Socket Only,2025-09-29,2025,9,1
461664,Hotel Reina Cristina,Algeciras,Algeciras,Unknown,Unknown,ES,36.12310970534202,-5.444919375668178,Business Owner at Location,Operational,1,Type 2 Socket Only,2025-09-29,2025,9,1
